{"type": "FeatureCollection", "name": "case2746wop_TAMU_Updated", "crs": {"type": "name", "properties": {"name": "EPSG:4326"}}, "features": [{"type": "Feature", "geometry": {"type": "Point", "coordinates": [19.1778, 51.21298]}, "properties": {"bus": 1, "subst_id": 1, "station": "1 BEK Near Pajeczno& left bottom of ROG", "matched_name": "1 BEK Near P", "match_score": 1.0, "source": "epc"}}, {"type": "Feature", "geometry": {"type": "Point", "coordinates": [19.1778, 51.21298]}, "properties": {"bus": 2, "subst_id": 1, "station": "1 BEK Near Pajeczno& left bottom of ROG", "matched_name": "1 BEK Near P", "match_score": 1.0, "source": "epc"}}, {"type": "Feature", "geometry": {"type": "Point", "coordinates": [22.360136, 53.833765]}, "properties": {"bus": 3, "subst_id": 2, "station": "3 ELK Elk", "matched_name": "3 ELK Elk", "match_score": 1.0, "source": "epc"}}, {"type": "Feature", "geometry": {"type": "Point", "coordinates": [19.567643, 51.76127]}, "properties": {"bus": 4, "subst_id": 3, "station": "4 JAN Sub", "matched_name": "4 JAN Sub", "match_score": 1.0, "source": "epc"}}, {"type": "Feature", "geometry": {"type": "Point", "coordinates": [19.567643, 51.76127]}, "properties": {"bus": 5, "subst_id": 3, "station": "4 JAN Sub", "matched_name": "4 JAN Sub", "match_score": 1.0, "source": "epc"}}, {"type": "Feature", "geometry": {"type": "Point", "coordinates": [21.270414, 52.25798]}, "properties": {"bus": 6, "subst_id": 4, "station": "6 MIL", "matched_name": "6 MIL", "match_score": 1.0, "source": "epc"}}, {"type": "Feature", "geometry": {"type": "Point", "coordinates": [21.270414, 52.25798]}, "properties": {"bus": 7, "subst_id": 4, "station": "6 MIL", "matched_name": "6 MIL", "match_score": 1.0, "source": "epc"}}, {"type": "Feature", "geometry": {"type": "Point", "coordinates": [21.270414, 52.25798]}, "properties": {"bus": 8, "subst_id": 4, "station": "6 MIL", "matched_name": "6 MIL", "match_score": 1.0, "source": "epc"}}, {"type": "Feature", "geometry": {"type": "Point", "coordinates": [21.270414, 52.25798]}, "properties": {"bus": 9, "subst_id": 4, "station": "6 MIL", "matched_name": "6 MIL", "match_score": 1.0, "source": "epc"}}, {"type": "Feature", "geometry": {"type": "Point", "coordinates": [21.042793, 52.215282]}, "properties": {"bus": 10, "subst_id": 5, "station": "10 MOR", "matched_name": "10 MOR", "match_score": 1.0, "source": "epc"}}, {"type": "Feature", "geometry": {"type": "Point", "coordinates": [21.042793, 52.215282]}, "properties": {"bus": 11, "subst_id": 5, "station": "10 MOR", "matched_name": "10 MOR", "match_score": 1.0, "source": "epc"}}, {"type": "Feature", "geometry": {"type": "Point", "coordinates": [21.042793, 52.215282]}, "properties": {"bus": 12, "subst_id": 5, "station": "10 MOR", "matched_name": "10 MOR", "match_score": 1.0, "source": "epc"}}, {"type": "Feature", "geometry": {"type": "Point", "coordinates": [20.869541, 52.28928]}, "properties": {"bus": 13, "subst_id": 6, "station": "13 MSK", "matched_name": "13 MSK", "match_score": 1.0, "source": "epc"}}, {"type": "Feature", "geometry": {"type": "Point", "coordinates": [20.869541, 52.28928]}, "properties": {"bus": 14, "subst_id": 6, "station": "13 MSK", "matched_name": "13 MSK", "match_score": 1.0, "source": "epc"}}, {"type": "Feature", "geometry": {"type": "Point", "coordinates": [23.761886, 52.834167]}, "properties": {"bus": 15, "subst_id": 7, "station": "15 NAR Narewka", "matched_name": "15 NAR Narew", "match_score": 1.0, "source": "epc"}}, {"type": "Feature", "geometry": {"type": "Point", "coordinates": [23.761886, 52.834167]}, "properties": {"bus": 16, "subst_id": 7, "station": "15 NAR Narewka", "matched_name": "15 NAR Narew", "match_score": 1.0, "source": "epc"}}, {"type": "Feature", "geometry": {"type": "Point", "coordinates": [21.538187, 53.15154]}, "properties": {"bus": 17, "subst_id": 8, "station": "Ostroleka", "matched_name": "Ostroleka", "match_score": 1.0, "source": "epc"}}, {"type": "Feature", "geometry": {"type": "Point", "coordinates": [21.538187, 53.15154]}, "properties": {"bus": 18, "subst_id": 8, "station": "Ostroleka", "matched_name": "Ostroleka", "match_score": 1.0, "source": "epc"}}, {"type": "Feature", "geometry": {"type": "Point", "coordinates": [19.419561, 51.688017]}, "properties": {"bus": 19, "subst_id": 9, "station": "19 PAB Near Lodz& Rzgow", "matched_name": "19 PAB Near ", "match_score": 1.0, "source": "epc"}}, {"type": "Feature", "geometry": {"type": "Point", "coordinates": [19.419561, 51.688017]}, "properties": {"bus": 20, "subst_id": 9, "station": "19 PAB Near Lodz& Rzgow", "matched_name": "19 PAB Near ", "match_score": 1.0, "source": "epc"}}, {"type": "Feature", "geometry": {"type": "Point", "coordinates": [19.680669, 52.600717]}, "properties": {"bus": 21, "subst_id": 10, "station": "21 PDE Plock", "matched_name": "21 PDE Plock", "match_score": 1.0, "source": "epc"}}, {"type": "Feature", "geometry": {"type": "Point", "coordinates": [19.680669, 52.600717]}, "properties": {"bus": 22, "subst_id": 10, "station": "21 PDE Plock", "matched_name": "21 PDE Plock", "match_score": 1.0, "source": "epc"}}, {"type": "Feature", "geometry": {"type": "Point", "coordinates": [21.02048, 52.12044]}, "properties": {"bus": 23, "subst_id": 11, "station": "23 PIA", "matched_name": "23 PIA", "match_score": 1.0, "source": "epc"}}, {"type": "Feature", "geometry": {"type": "Point", "coordinates": [19.645897, 51.432817]}, "properties": {"bus": 24, "subst_id": 12, "station": "24 PIO Near LODZ, Piotrkow", "matched_name": "24 PIO Near ", "match_score": 1.0, "source": "epc"}}, {"type": "Feature", "geometry": {"type": "Point", "coordinates": [20.41239, 52.741399]}, "properties": {"bus": 25, "subst_id": 13, "station": "25 PLO", "matched_name": "25 PLO", "match_score": 1.0, "source": "epc"}}, {"type": "Feature", "geometry": {"type": "Point", "coordinates": [19.36970612858122, 51.37514372219606]}, "properties": {"bus": 26, "subst_id": 14, "station": "Belchatow ROG", "matched_name": "Be\u0142chat\u00f3w", "match_score": 0.889, "source": "kmz"}}, {"type": "Feature", "geometry": {"type": "Point", "coordinates": [19.36970612858122, 51.37514372219606]}, "properties": {"bus": 27, "subst_id": 14, "station": "Belchatow ROG", "matched_name": "Be\u0142chat\u00f3w", "match_score": 0.889, "source": "kmz"}}, {"type": "Feature", "geometry": {"type": "Point", "coordinates": [19.36970612858122, 51.37514372219606]}, "properties": {"bus": 28, "subst_id": 14, "station": "Belchatow ROG", "matched_name": "Be\u0142chat\u00f3w", "match_score": 0.889, "source": "kmz"}}, {"type": "Feature", "geometry": {"type": "Point", "coordinates": [19.36970612858122, 51.37514372219606]}, "properties": {"bus": 29, "subst_id": 14, "station": "Belchatow ROG", "matched_name": "Be\u0142chat\u00f3w", "match_score": 0.889, "source": "kmz"}}, {"type": "Feature", "geometry": {"type": "Point", "coordinates": [20.25913574396917, 52.23268339376029]}, "properties": {"bus": 30, "subst_id": 15, "station": "30 SOC Sochaczew", "matched_name": "Sochaczew [SOC]", "match_score": 0.5, "source": "kmz"}}, {"type": "Feature", "geometry": {"type": "Point", "coordinates": [18.56227853780147, 51.23351437653202]}, "properties": {"bus": 31, "subst_id": 16, "station": "31 TRE near klobuck & Wielun", "matched_name": "Wielu\u0144", "match_score": 0.5, "source": "kmz"}}, {"type": "Feature", "geometry": {"type": "Point", "coordinates": [21.12938678166021, 52.28686537578297]}, "properties": {"bus": 32, "subst_id": 17, "station": "32 WTO Zabki", "matched_name": "Z\u0105bki", "match_score": 1.0, "source": "kmz"}}, {"type": "Feature", "geometry": {"type": "Point", "coordinates": [19.645897, 51.432817]}, "properties": {"bus": 33, "subst_id": 12, "station": "24 PIO Near LODZ, Piotrkow", "matched_name": "24 PIO Near ", "match_score": 1.0, "source": "epc"}}, {"type": "Feature", "geometry": {"type": "Point", "coordinates": [19.38267237135499, 51.8311637730222]}, "properties": {"bus": 34, "subst_id": 18, "station": "34 ZGI Zgierz", "matched_name": "Zgierz [ZGI]", "match_score": 0.5, "source": "kmz"}}, {"type": "Feature", "geometry": {"type": "Point", "coordinates": [22.58140934407807, 51.23322431301849]}, "properties": {"bus": 35, "subst_id": 19, "station": "35 ABR Near Lublin & Poniatowa", "matched_name": "Lublin Elektrownia", "match_score": 0.5, "source": "kmz"}}, {"type": "Feature", "geometry": {"type": "Point", "coordinates": [21.59533760102916, 50.06331220814898]}, "properties": {"bus": 36, "subst_id": 20, "station": "36 BGC Near Rzeszow & Ropczyce", "matched_name": "Ropczyce", "match_score": 0.5, "source": "kmz"}}, {"type": "Feature", "geometry": {"type": "Point", "coordinates": [21.69974494155307, 50.57672580669463]}, "properties": {"bus": 37, "subst_id": 21, "station": "37 CHM Near Tarnobrzeg", "matched_name": "Tarnobrzeg", "match_score": 1.0, "source": "kmz"}}, {"type": "Feature", "geometry": {"type": "Point", "coordinates": [21.69974494155307, 50.57672580669463]}, "properties": {"bus": 38, "subst_id": 21, "station": "37 CHM Near Tarnobrzeg", "matched_name": "Tarnobrzeg", "match_score": 1.0, "source": "kmz"}}, {"type": "Feature", "geometry": {"type": "Point", "coordinates": [23.443027, 51.171112]}, "properties": {"bus": 39, "subst_id": 22, "station": "39 CHS Near Chelm, Sawin", "matched_name": "39 CHS Near ", "match_score": 1.0, "source": "epc"}}, {"type": "Feature", "geometry": {"type": "Point", "coordinates": [20.43056, 50.90179]}, "properties": {"bus": 40, "subst_id": 23, "station": "40 KIE Below Konskie", "matched_name": "40 KIE Below", "match_score": 1.0, "source": "epc"}}, {"type": "Feature", "geometry": {"type": "Point", "coordinates": [20.43056, 50.90179]}, "properties": {"bus": 41, "subst_id": 23, "station": "40 KIE Below Konskie", "matched_name": "40 KIE Below", "match_score": 1.0, "source": "epc"}}, {"type": "Feature", "geometry": {"type": "Point", "coordinates": [20.43056, 50.90179]}, "properties": {"bus": 42, "subst_id": 23, "station": "40 KIE Below Konskie", "matched_name": "40 KIE Below", "match_score": 1.0, "source": "epc"}}, {"type": "Feature", "geometry": {"type": "Point", "coordinates": [21.54003222180609, 51.57444801032769]}, "properties": {"bus": 43, "subst_id": 24, "station": "Kozienice KOZ", "matched_name": "Kozienice Miasto", "match_score": 0.5, "source": "kmz"}}, {"type": "Feature", "geometry": {"type": "Point", "coordinates": [21.54003222180609, 51.57444801032769]}, "properties": {"bus": 44, "subst_id": 24, "station": "Kozienice KOZ", "matched_name": "Kozienice Miasto", "match_score": 0.5, "source": "kmz"}}, {"type": "Feature", "geometry": {"type": "Point", "coordinates": [21.54003222180609, 51.57444801032769]}, "properties": {"bus": 45, "subst_id": 24, "station": "Kozienice KOZ", "matched_name": "Kozienice Miasto", "match_score": 0.5, "source": "kmz"}}, {"type": "Feature", "geometry": {"type": "Point", "coordinates": [21.54003222180609, 51.57444801032769]}, "properties": {"bus": 46, "subst_id": 24, "station": "Kozienice KOZ", "matched_name": "Kozienice Miasto", "match_score": 0.5, "source": "kmz"}}, {"type": "Feature", "geometry": {"type": "Point", "coordinates": [20.61341300059581, 50.89983022363929]}, "properties": {"bus": 47, "subst_id": 25, "station": "47 KPK Near Kielce", "matched_name": "EC Kielce", "match_score": 1.0, "source": "kmz"}}, {"type": "Feature", "geometry": {"type": "Point", "coordinates": [22.01111943232085, 49.71120957497161]}, "properties": {"bus": 48, "subst_id": 26, "station": "48 KRI Near Krosno & Brzozow", "matched_name": "Brzoz\u00f3w", "match_score": 0.5, "source": "kmz"}}, {"type": "Feature", "geometry": {"type": "Point", "coordinates": [22.01111943232085, 49.71120957497161]}, "properties": {"bus": 49, "subst_id": 26, "station": "48 KRI Near Krosno & Brzozow", "matched_name": "Brzoz\u00f3w", "match_score": 0.5, "source": "kmz"}}, {"type": "Feature", "geometry": {"type": "Point", "coordinates": [22.58140934407807, 51.23322431301849]}, "properties": {"bus": 50, "subst_id": 27, "station": "50 LSY Near Lublin", "matched_name": "Lublin Elektrownia", "match_score": 1.0, "source": "kmz"}}, {"type": "Feature", "geometry": {"type": "Point", "coordinates": [22.98585583431358, 50.68316933850986]}, "properties": {"bus": 51, "subst_id": 28, "station": "51 MKR Near Szczebrzeszyn", "matched_name": "Szczebrzeszyn", "match_score": 1.0, "source": "kmz"}}, {"type": "Feature", "geometry": {"type": "Point", "coordinates": [22.98585583431358, 50.68316933850986]}, "properties": {"bus": 52, "subst_id": 28, "station": "51 MKR Near Szczebrzeszyn", "matched_name": "Szczebrzeszyn", "match_score": 1.0, "source": "kmz"}}, {"type": "Feature", "geometry": {"type": "Point", "coordinates": [21.37740101044465, 50.96126889517567]}, "properties": {"bus": 53, "subst_id": 29, "station": "53 OSC Near Ostrowiec, Cmielow", "matched_name": "Ostrowiec II", "match_score": 0.5, "source": "kmz"}}, {"type": "Feature", "geometry": {"type": "Point", "coordinates": [21.37740101044465, 50.96126889517567]}, "properties": {"bus": 54, "subst_id": 29, "station": "53 OSC Near Ostrowiec, Cmielow", "matched_name": "Ostrowiec II", "match_score": 0.5, "source": "kmz"}}, {"type": "Feature", "geometry": {"type": "Point", "coordinates": [21.32290675563104, 50.43814078633661]}, "properties": {"bus": 55, "subst_id": 30, "station": "Polaniec PEL", "matched_name": "Po\u0142aniec", "match_score": 0.875, "source": "kmz"}}, {"type": "Feature", "geometry": {"type": "Point", "coordinates": [21.32290675563104, 50.43814078633661]}, "properties": {"bus": 56, "subst_id": 30, "station": "Polaniec PEL", "matched_name": "Po\u0142aniec", "match_score": 0.875, "source": "kmz"}}, {"type": "Feature", "geometry": {"type": "Point", "coordinates": [21.32290675563104, 50.43814078633661]}, "properties": {"bus": 57, "subst_id": 30, "station": "Polaniec PEL", "matched_name": "Po\u0142aniec", "match_score": 0.875, "source": "kmz"}}, {"type": "Feature", "geometry": {"type": "Point", "coordinates": [21.32290675563104, 50.43814078633661]}, "properties": {"bus": 58, "subst_id": 30, "station": "Polaniec PEL", "matched_name": "Po\u0142aniec", "match_score": 0.875, "source": "kmz"}}, {"type": "Feature", "geometry": {"type": "Point", "coordinates": [21.98445, 51.45246]}, "properties": {"bus": 59, "subst_id": 31, "station": "Pulawy PUL", "matched_name": "Pulawy PUL", "match_score": 1.0, "source": "epc"}}, {"type": "Feature", "geometry": {"type": "Point", "coordinates": [21.98445, 51.45246]}, "properties": {"bus": 60, "subst_id": 31, "station": "Pulawy PUL", "matched_name": "Pulawy PUL", "match_score": 1.0, "source": "epc"}}, {"type": "Feature", "geometry": {"type": "Point", "coordinates": [20.61341300059581, 50.89983022363929]}, "properties": {"bus": 61, "subst_id": 32, "station": "61 RAD Near Checiney & Kielce", "matched_name": "EC Kielce", "match_score": 0.5, "source": "kmz"}}, {"type": "Feature", "geometry": {"type": "Point", "coordinates": [21.14209924945965, 51.3878016969047]}, "properties": {"bus": 62, "subst_id": 33, "station": "62 ROZ Near Radom, Skaryszew", "matched_name": "Radom ZM", "match_score": 0.5, "source": "kmz"}}, {"type": "Feature", "geometry": {"type": "Point", "coordinates": [21.14209924945965, 51.3878016969047]}, "properties": {"bus": 63, "subst_id": 33, "station": "62 ROZ Near Radom, Skaryszew", "matched_name": "Radom ZM", "match_score": 0.5, "source": "kmz"}}, {"type": "Feature", "geometry": {"type": "Point", "coordinates": [21.808421, 50.235914]}, "properties": {"bus": 64, "subst_id": 34, "station": "64 RZE Near Glogow Malopol-ski & Kolbuozowa", "matched_name": "64 RZE Near ", "match_score": 1.0, "source": "epc"}}, {"type": "Feature", "geometry": {"type": "Point", "coordinates": [21.808421, 50.235914]}, "properties": {"bus": 65, "subst_id": 34, "station": "64 RZE Near Glogow Malopol-ski & Kolbuozowa", "matched_name": "64 RZE Near ", "match_score": 1.0, "source": "epc"}}, {"type": "Feature", "geometry": {"type": "Point", "coordinates": [22.05566214295427, 50.55059329233153]}, "properties": {"bus": 66, "subst_id": 35, "station": "66 STW Stalowa Wola", "matched_name": "Huta Stalowa Wola 0", "match_score": 0.667, "source": "kmz"}}, {"type": "Feature", "geometry": {"type": "Point", "coordinates": [22.07734, 50.55]}, "properties": {"bus": 67, "subst_id": 36, "station": "67 But No Specific Name& Near Stalowa Wala", "matched_name": "67 But No Sp", "match_score": 1.0, "source": "epc"}}, {"type": "Feature", "geometry": {"type": "Point", "coordinates": [22.98585583431358, 50.68316933850986]}, "properties": {"bus": 68, "subst_id": 37, "station": "68 ZAM Near Zamos, Szczebrzeszyn", "matched_name": "Szczebrzeszyn", "match_score": 0.5, "source": "kmz"}}, {"type": "Feature", "geometry": {"type": "Point", "coordinates": [19.00182, 50.80841]}, "properties": {"bus": 69, "subst_id": 38, "station": "69 ANI Near Blachownia & Wreczyca", "matched_name": "69 ANI Near ", "match_score": 1.0, "source": "epc"}}, {"type": "Feature", "geometry": {"type": "Point", "coordinates": [20.9668, 50.01525]}, "properties": {"bus": 70, "subst_id": 39, "station": "70 ATA  Near Tarnow, Debica", "matched_name": "70 ATA  Near", "match_score": 1.0, "source": "epc"}}, {"type": "Feature", "geometry": {"type": "Point", "coordinates": [20.9668, 50.01525]}, "properties": {"bus": 71, "subst_id": 39, "station": "70 ATA  Near Tarnow, Debica", "matched_name": "70 ATA  Near", "match_score": 1.0, "source": "epc"}}, {"type": "Feature", "geometry": {"type": "Point", "coordinates": [19.16956221583443, 50.08635623160367]}, "properties": {"bus": 72, "subst_id": 41, "station": "72 BIR Near Bierun", "matched_name": "Bieru\u0144 [BIR]", "match_score": 0.5, "source": "kmz"}}, {"type": "Feature", "geometry": {"type": "Point", "coordinates": [19.16956221583443, 50.08635623160367]}, "properties": {"bus": 73, "subst_id": 41, "station": "72 BIR Near Bierun", "matched_name": "Bieru\u0144 [BIR]", "match_score": 0.5, "source": "kmz"}}, {"type": "Feature", "geometry": {"type": "Point", "coordinates": [18.25439644187155, 50.31774665920317]}, "properties": {"bus": 74, "subst_id": 42, "station": "74 BLA Near KEDZIERZYN KOZLE", "matched_name": "K\u0119dzierzyn [KED]", "match_score": 0.867, "source": "kmz"}}, {"type": "Feature", "geometry": {"type": "Point", "coordinates": [18.25439644187155, 50.31774665920317]}, "properties": {"bus": 75, "subst_id": 42, "station": "74 BLA Near KEDZIERZYN KOZLE", "matched_name": "K\u0119dzierzyn [KED]", "match_score": 0.867, "source": "kmz"}}, {"type": "Feature", "geometry": {"type": "Point", "coordinates": [19.05465, 49.8132]}, "properties": {"bus": 76, "subst_id": 43, "station": "76 BUJ Porabka- Zar Near BIELSKO-BIAL", "matched_name": "76 BUJ Porab", "match_score": 1.0, "source": "epc"}}, {"type": "Feature", "geometry": {"type": "Point", "coordinates": [19.05465, 49.8132]}, "properties": {"bus": 77, "subst_id": 43, "station": "76 BUJ Porabka- Zar Near BIELSKO-BIAL", "matched_name": "76 BUJ Porab", "match_score": 1.0, "source": "epc"}}, {"type": "Feature", "geometry": {"type": "Point", "coordinates": [19.27580402673623, 50.19538336428581]}, "properties": {"bus": 78, "subst_id": 44, "station": "Jaworzno BYC", "matched_name": "Jaworzno 1", "match_score": 1.0, "source": "kmz"}}, {"type": "Feature", "geometry": {"type": "Point", "coordinates": [19.27580402673623, 50.19538336428581]}, "properties": {"bus": 79, "subst_id": 44, "station": "Jaworzno BYC", "matched_name": "Jaworzno 1", "match_score": 1.0, "source": "kmz"}}, {"type": "Feature", "geometry": {"type": "Point", "coordinates": [21.40012552734093, 50.50135913027166]}, "properties": {"bus": 80, "subst_id": 45, "station": "80 CZT Near Osiek,Kaniow", "matched_name": "Osiek", "match_score": 0.5, "source": "kmz"}}, {"type": "Feature", "geometry": {"type": "Point", "coordinates": [21.40012552734093, 50.50135913027166]}, "properties": {"bus": 81, "subst_id": 45, "station": "80 CZT Near Osiek,Kaniow", "matched_name": "Osiek", "match_score": 0.5, "source": "kmz"}}, {"type": "Feature", "geometry": {"type": "Point", "coordinates": [21.97455046495733, 51.13677270496459]}, "properties": {"bus": 82, "subst_id": 46, "station": "Opole DBN", "matched_name": "Opole Lubelskie", "match_score": 0.5, "source": "kmz"}}, {"type": "Feature", "geometry": {"type": "Point", "coordinates": [17.99864, 50.62792]}, "properties": {"bus": 83, "subst_id": 47, "station": "83 GRO Near Opole & Proszkow", "matched_name": "83 GRO Near ", "match_score": 1.0, "source": "epc"}}, {"type": "Feature", "geometry": {"type": "Point", "coordinates": [18.80873, 50.29432]}, "properties": {"bus": 84, "subst_id": 48, "station": "84 HAL Near Gliwice, Fortum Silesia SA", "matched_name": "84 HAL Near ", "match_score": 1.0, "source": "epc"}}, {"type": "Feature", "geometry": {"type": "Point", "coordinates": [18.80873, 50.29432]}, "properties": {"bus": 85, "subst_id": 48, "station": "84 HAL Near Gliwice, Fortum Silesia SA", "matched_name": "84 HAL Near ", "match_score": 1.0, "source": "epc"}}, {"type": "Feature", "geometry": {"type": "Point", "coordinates": [18.29030325353552, 50.35627215805714]}, "properties": {"bus": 86, "subst_id": 49, "station": "86 HCZ Near Blachownia", "matched_name": "El. Blachownia", "match_score": 0.87, "source": "kmz"}}, {"type": "Feature", "geometry": {"type": "Point", "coordinates": [18.29030325353552, 50.35627215805714]}, "properties": {"bus": 87, "subst_id": 49, "station": "86 HCZ Near Blachownia", "matched_name": "El. Blachownia", "match_score": 0.87, "source": "kmz"}}, {"type": "Feature", "geometry": {"type": "Point", "coordinates": [19.17749, 50.34431]}, "properties": {"bus": 88, "subst_id": 50, "station": "88 JAM From LAG & Near Sosnowiece", "matched_name": "88 JAM From ", "match_score": 1.0, "source": "epc"}}, {"type": "Feature", "geometry": {"type": "Point", "coordinates": [19.17749, 50.34431]}, "properties": {"bus": 89, "subst_id": 50, "station": "88 JAM From LAG & Near Sosnowiece", "matched_name": "88 JAM From ", "match_score": 1.0, "source": "epc"}}, {"type": "Feature", "geometry": {"type": "Point", "coordinates": [19.1207, 50.81173]}, "properties": {"bus": 90, "subst_id": 51, "station": "90 JOA Near Czestochowa", "matched_name": "90 JOA Near ", "match_score": 1.0, "source": "epc"}}, {"type": "Feature", "geometry": {"type": "Point", "coordinates": [19.1207, 50.81173]}, "properties": {"bus": 91, "subst_id": 51, "station": "90 JOA Near Czestochowa", "matched_name": "90 JOA Near ", "match_score": 1.0, "source": "epc"}}, {"type": "Feature", "geometry": {"type": "Point", "coordinates": [19.1207, 50.81173]}, "properties": {"bus": 92, "subst_id": 51, "station": "90 JOA Near Czestochowa", "matched_name": "90 JOA Near ", "match_score": 1.0, "source": "epc"}}, {"type": "Feature", "geometry": {"type": "Point", "coordinates": [19.1207, 50.81173]}, "properties": {"bus": 93, "subst_id": 51, "station": "90 JOA Near Czestochowa", "matched_name": "90 JOA Near ", "match_score": 1.0, "source": "epc"}}, {"type": "Feature", "geometry": {"type": "Point", "coordinates": [19.58092694513844, 51.88707944443657]}, "properties": {"bus": 94, "subst_id": 52, "station": "94 KAT Near SOSNOWIEC & Czelad", "matched_name": "Sosnowiec", "match_score": 0.5, "source": "kmz"}}, {"type": "Feature", "geometry": {"type": "Point", "coordinates": [19.58092694513844, 51.88707944443657]}, "properties": {"bus": 95, "subst_id": 52, "station": "94 KAT Near SOSNOWIEC & Czelad", "matched_name": "Sosnowiec", "match_score": 0.5, "source": "kmz"}}, {"type": "Feature", "geometry": {"type": "Point", "coordinates": [18.28847, 50.28674]}, "properties": {"bus": 96, "subst_id": 53, "station": "96 KED Below BLA(74)", "matched_name": "96 KED Below", "match_score": 1.0, "source": "epc"}}, {"type": "Feature", "geometry": {"type": "Point", "coordinates": [18.28847, 50.28674]}, "properties": {"bus": 97, "subst_id": 53, "station": "96 KED Below BLA(74)", "matched_name": "96 KED Below", "match_score": 1.0, "source": "epc"}}, {"type": "Feature", "geometry": {"type": "Point", "coordinates": [19.54349319504857, 50.28595639061982]}, "properties": {"bus": 98, "subst_id": 54, "station": "98 KHK Near Olkusz", "matched_name": "Olkusz", "match_score": 1.0, "source": "kmz"}}, {"type": "Feature", "geometry": {"type": "Point", "coordinates": [19.54349319504857, 50.28595639061982]}, "properties": {"bus": 99, "subst_id": 54, "station": "98 KHK Near Olkusz", "matched_name": "Olkusz", "match_score": 1.0, "source": "kmz"}}, {"type": "Feature", "geometry": {"type": "Point", "coordinates": [20.91387, 50.04182]}, "properties": {"bus": 100, "subst_id": 55, "station": "100 KLA Near Tarnow, Zabno", "matched_name": "100 KLA Near", "match_score": 1.0, "source": "epc"}}, {"type": "Feature", "geometry": {"type": "Point", "coordinates": [20.91387, 50.04182]}, "properties": {"bus": 101, "subst_id": 55, "station": "100 KLA Near Tarnow, Zabno", "matched_name": "100 KLA Near", "match_score": 1.0, "source": "epc"}}, {"type": "Feature", "geometry": {"type": "Point", "coordinates": [18.92115, 49.87362]}, "properties": {"bus": 102, "subst_id": 56, "station": "102 KOM Near CZECHWICE-DZIEDZICE and above Jaworze", "matched_name": "102 KOM Near", "match_score": 1.0, "source": "epc"}}, {"type": "Feature", "geometry": {"type": "Point", "coordinates": [18.92115, 49.87362]}, "properties": {"bus": 103, "subst_id": 56, "station": "102 KOM Near CZECHWICE-DZIEDZICE and above Jaworze", "matched_name": "102 KOM Near", "match_score": 1.0, "source": "epc"}}, {"type": "Feature", "geometry": {"type": "Point", "coordinates": [18.8404, 50.13238]}, "properties": {"bus": 104, "subst_id": 57, "station": "laziska KOP Near Tychy", "matched_name": "laziska KOP ", "match_score": 1.0, "source": "epc"}}, {"type": "Feature", "geometry": {"type": "Point", "coordinates": [18.8404, 50.13238]}, "properties": {"bus": 105, "subst_id": 57, "station": "laziska KOP Near Tychy", "matched_name": "laziska KOP ", "match_score": 1.0, "source": "epc"}}, {"type": "Feature", "geometry": {"type": "Point", "coordinates": [19.14104, 50.34967]}, "properties": {"bus": 106, "subst_id": 58, "station": "lagisza LAG, PKE SA Power Plant", "matched_name": "lagisza LAG,", "match_score": 1.0, "source": "epc"}}, {"type": "Feature", "geometry": {"type": "Point", "coordinates": [19.14104, 50.34967]}, "properties": {"bus": 107, "subst_id": 58, "station": "lagisza LAG, PKE SA Power Plant", "matched_name": "lagisza LAG,", "match_score": 1.0, "source": "epc"}}, {"type": "Feature", "geometry": {"type": "Point", "coordinates": [19.53524, 50.47932]}, "properties": {"bus": 108, "subst_id": 59, "station": "108 LOS Near Zawiercie & Pilica", "matched_name": "108 LOS Near", "match_score": 1.0, "source": "epc"}}, {"type": "Feature", "geometry": {"type": "Point", "coordinates": [19.53524, 50.47932]}, "properties": {"bus": 109, "subst_id": 59, "station": "108 LOS Near Zawiercie & Pilica", "matched_name": "108 LOS Near", "match_score": 1.0, "source": "epc"}}, {"type": "Feature", "geometry": {"type": "Point", "coordinates": [20.00589, 50.05279]}, "properties": {"bus": 110, "subst_id": 60, "station": "110 LUA NearMeichow, Krakow", "matched_name": "110 LUA Near", "match_score": 1.0, "source": "epc"}}, {"type": "Feature", "geometry": {"type": "Point", "coordinates": [18.56448, 49.9534]}, "properties": {"bus": 111, "subst_id": 61, "station": "111 MOS at EC Moszczenica Near Orlova", "matched_name": "111 MOS at E", "match_score": 1.0, "source": "epc"}}, {"type": "Feature", "geometry": {"type": "Point", "coordinates": [18.56448, 49.9534]}, "properties": {"bus": 112, "subst_id": 61, "station": "111 MOS at EC Moszczenica Near Orlova", "matched_name": "111 MOS at E", "match_score": 1.0, "source": "epc"}}, {"type": "Feature", "geometry": {"type": "Point", "coordinates": [19.27891, 49.99234]}, "properties": {"bus": 113, "subst_id": 62, "station": "113 PRB Near Oswiecim, Osiek & above Kety", "matched_name": "113 PRB Near", "match_score": 1.0, "source": "epc"}}, {"type": "Feature", "geometry": {"type": "Point", "coordinates": [19.27891, 49.99234]}, "properties": {"bus": 114, "subst_id": 62, "station": "113 PRB Near Oswiecim, Osiek & above Kety", "matched_name": "113 PRB Near", "match_score": 1.0, "source": "epc"}}, {"type": "Feature", "geometry": {"type": "Point", "coordinates": [18.84308, 50.35163]}, "properties": {"bus": 115, "subst_id": 63, "station": "115 ROK at Fortum Bytom Power Station & bottom of Tarnowskie Gory", "matched_name": "115 ROK at F", "match_score": 1.0, "source": "epc"}}, {"type": "Feature", "geometry": {"type": "Point", "coordinates": [19.46485915562955, 50.20964608257614]}, "properties": {"bus": 116, "subst_id": 64, "station": "Siersza SIE 72", "matched_name": "Siersza [SIE]", "match_score": 1.0, "source": "kmz"}}, {"type": "Feature", "geometry": {"type": "Point", "coordinates": [19.46485915562955, 50.20964608257614]}, "properties": {"bus": 117, "subst_id": 64, "station": "Siersza SIE 72", "matched_name": "Siersza [SIE]", "match_score": 1.0, "source": "kmz"}}, {"type": "Feature", "geometry": {"type": "Point", "coordinates": [19.79242172398856, 49.96663261522167]}, "properties": {"bus": 118, "subst_id": 65, "station": "Skawina SKA", "matched_name": "Huta Skawina", "match_score": 0.5, "source": "kmz"}}, {"type": "Feature", "geometry": {"type": "Point", "coordinates": [19.79242172398856, 49.96663261522167]}, "properties": {"bus": 119, "subst_id": 65, "station": "Skawina SKA", "matched_name": "Huta Skawina", "match_score": 0.5, "source": "kmz"}}, {"type": "Feature", "geometry": {"type": "Point", "coordinates": [20.958891, 49.991759]}, "properties": {"bus": 120, "subst_id": 66, "station": "120 TAW Near Tarnow, Pilzno", "matched_name": "120 TAW Near", "match_score": 1.0, "source": "epc"}}, {"type": "Feature", "geometry": {"type": "Point", "coordinates": [20.958891, 49.991759]}, "properties": {"bus": 121, "subst_id": 66, "station": "120 TAW Near Tarnow, Pilzno", "matched_name": "120 TAW Near", "match_score": 1.0, "source": "epc"}}, {"type": "Feature", "geometry": {"type": "Point", "coordinates": [18.65272667464937, 50.22791400131657]}, "properties": {"bus": 122, "subst_id": 67, "station": "122 TCN Near Dabrowa Gornicza", "matched_name": "G\u00f3rnicza", "match_score": 0.5, "source": "kmz"}}, {"type": "Feature", "geometry": {"type": "Point", "coordinates": [18.65272667464937, 50.22791400131657]}, "properties": {"bus": 123, "subst_id": 67, "station": "122 TCN Near Dabrowa Gornicza", "matched_name": "G\u00f3rnicza", "match_score": 0.5, "source": "kmz"}}, {"type": "Feature", "geometry": {"type": "Point", "coordinates": [20.08657969783423, 49.98735166122513]}, "properties": {"bus": 124, "subst_id": 68, "station": "124 WAN Near Krakow, Wieliczka", "matched_name": "Wieliczka", "match_score": 0.5, "source": "kmz"}}, {"type": "Feature", "geometry": {"type": "Point", "coordinates": [18.52330972212118, 50.13307222357545]}, "properties": {"bus": 125, "subst_id": 69, "station": "Rybnik WIE", "matched_name": "El. Rybnik", "match_score": 0.5, "source": "kmz"}}, {"type": "Feature", "geometry": {"type": "Point", "coordinates": [18.52330972212118, 50.13307222357545]}, "properties": {"bus": 126, "subst_id": 69, "station": "Rybnik WIE", "matched_name": "El. Rybnik", "match_score": 0.5, "source": "kmz"}}, {"type": "Feature", "geometry": {"type": "Point", "coordinates": [18.52330972212118, 50.13307222357545]}, "properties": {"bus": 127, "subst_id": 69, "station": "Rybnik WIE", "matched_name": "El. Rybnik", "match_score": 0.5, "source": "kmz"}}, {"type": "Feature", "geometry": {"type": "Point", "coordinates": [18.52330972212118, 50.13307222357545]}, "properties": {"bus": 128, "subst_id": 69, "station": "Rybnik WIE", "matched_name": "El. Rybnik", "match_score": 0.5, "source": "kmz"}}, {"type": "Feature", "geometry": {"type": "Point", "coordinates": [19.08262, 50.776676]}, "properties": {"bus": 129, "subst_id": 70, "station": "129, between WRZ(113) and HCZ(86)", "matched_name": "129, between", "match_score": 1.0, "source": "epc"}}, {"type": "Feature", "geometry": {"type": "Point", "coordinates": [19.08262, 50.776676]}, "properties": {"bus": 130, "subst_id": 70, "station": "129, between WRZ(113) and HCZ(86)", "matched_name": "129, between", "match_score": 1.0, "source": "epc"}}, {"type": "Feature", "geometry": {"type": "Point", "coordinates": [19.11497, 50.7772]}, "properties": {"bus": 131, "subst_id": 71, "station": "131 WRZ", "matched_name": "131 WRZ", "match_score": 1.0, "source": "epc"}}, {"type": "Feature", "geometry": {"type": "Point", "coordinates": [19.21162602455011, 49.78035822974301]}, "properties": {"bus": 132, "subst_id": 72, "station": "Porabka-Zar ZAP Near Zywiec", "matched_name": "\u017bar [ZAP]", "match_score": 0.5, "source": "kmz"}}, {"type": "Feature", "geometry": {"type": "Point", "coordinates": [19.21162602455011, 49.78035822974301]}, "properties": {"bus": 133, "subst_id": 72, "station": "Porabka-Zar ZAP Near Zywiec", "matched_name": "\u017bar [ZAP]", "match_score": 0.5, "source": "kmz"}}, {"type": "Feature", "geometry": {"type": "Point", "coordinates": [18.61017242290727, 52.02576198243848]}, "properties": {"bus": 134, "subst_id": 74, "station": "Adamow", "matched_name": "Adam\u00f3w KWB", "match_score": 1.0, "source": "kmz"}}, {"type": "Feature", "geometry": {"type": "Point", "coordinates": [18.61017242290727, 52.02576198243848]}, "properties": {"bus": 135, "subst_id": 74, "station": "Adamow", "matched_name": "Adam\u00f3w KWB", "match_score": 1.0, "source": "kmz"}}, {"type": "Feature", "geometry": {"type": "Point", "coordinates": [16.238229, 50.759506]}, "properties": {"bus": 136, "subst_id": 75, "station": "136 BOG Near Boguszow-Gorce", "matched_name": "136 BOG Near", "match_score": 1.0, "source": "epc"}}, {"type": "Feature", "geometry": {"type": "Point", "coordinates": [15.65381, 50.889672]}, "properties": {"bus": 137, "subst_id": 76, "station": "137 CPC Near Swieradow-Zdroj", "matched_name": "137 CPC Near", "match_score": 1.0, "source": "epc"}}, {"type": "Feature", "geometry": {"type": "Point", "coordinates": [16.297783, 51.380927]}, "properties": {"bus": 138, "subst_id": 77, "station": "138 CRN", "matched_name": "138 CRN", "match_score": 1.0, "source": "epc"}}, {"type": "Feature", "geometry": {"type": "Point", "coordinates": [16.297783, 51.380927]}, "properties": {"bus": 139, "subst_id": 77, "station": "138 CRN", "matched_name": "138 CRN", "match_score": 1.0, "source": "epc"}}, {"type": "Feature", "geometry": {"type": "Point", "coordinates": [17.496833, 52.466885]}, "properties": {"bus": 140, "subst_id": 78, "station": "140 CZE Czerniejewo", "matched_name": "140 CZE Czer", "match_score": 1.0, "source": "epc"}}, {"type": "Feature", "geometry": {"type": "Point", "coordinates": [21.0812297734335, 52.22701799190168]}, "properties": {"bus": 141, "subst_id": 79, "station": "141 GLN Gol?cino-Goc?aw", "matched_name": "Goc\u0142aw", "match_score": 0.5, "source": "kmz"}}, {"type": "Feature", "geometry": {"type": "Point", "coordinates": [21.0812297734335, 52.22701799190168]}, "properties": {"bus": 142, "subst_id": 79, "station": "141 GLN Gol?cino-Goc?aw", "matched_name": "Goc\u0142aw", "match_score": 0.5, "source": "kmz"}}, {"type": "Feature", "geometry": {"type": "Point", "coordinates": [15.26949432804577, 52.74904853311882]}, "properties": {"bus": 143, "subst_id": 80, "station": "143 GOR Gorz\u00f3w Wielkopolski", "matched_name": "EC Gorz\u00f3w", "match_score": 0.5, "source": "kmz"}}, {"type": "Feature", "geometry": {"type": "Point", "coordinates": [16.839959, 50.999257]}, "properties": {"bus": 144, "subst_id": 81, "station": "144 WRC/ KLE Near Katy and Scbotya", "matched_name": "144 WRC/ KLE", "match_score": 1.0, "source": "epc"}}, {"type": "Feature", "geometry": {"type": "Point", "coordinates": [16.839959, 50.999257]}, "properties": {"bus": 145, "subst_id": 81, "station": "144 WRC/ KLE Near Katy and Scbotya", "matched_name": "144 WRC/ KLE", "match_score": 1.0, "source": "epc"}}, {"type": "Feature", "geometry": {"type": "Point", "coordinates": [18.27894725427494, 52.25927744578068]}, "properties": {"bus": 146, "subst_id": 82, "station": "Konin", "matched_name": "Konin Walcownia", "match_score": 0.5, "source": "kmz"}}, {"type": "Feature", "geometry": {"type": "Point", "coordinates": [18.27894725427494, 52.25927744578068]}, "properties": {"bus": 147, "subst_id": 82, "station": "Konin", "matched_name": "Konin Walcownia", "match_score": 0.5, "source": "kmz"}}, {"type": "Feature", "geometry": {"type": "Point", "coordinates": [14.46357251600939, 53.20452682793295]}, "properties": {"bus": 148, "subst_id": 83, "station": "Dolna Odra", "matched_name": "El. Dolna Odra", "match_score": 0.87, "source": "kmz"}}, {"type": "Feature", "geometry": {"type": "Point", "coordinates": [14.46357251600939, 53.20452682793295]}, "properties": {"bus": 149, "subst_id": 83, "station": "Dolna Odra", "matched_name": "El. Dolna Odra", "match_score": 0.87, "source": "kmz"}}, {"type": "Feature", "geometry": {"type": "Point", "coordinates": [14.46357251600939, 53.20452682793295]}, "properties": {"bus": 150, "subst_id": 83, "station": "Dolna Odra", "matched_name": "El. Dolna Odra", "match_score": 0.87, "source": "kmz"}}, {"type": "Feature", "geometry": {"type": "Point", "coordinates": [14.46357251600939, 53.20452682793295]}, "properties": {"bus": 151, "subst_id": 83, "station": "Dolna Odra", "matched_name": "El. Dolna Odra", "match_score": 0.87, "source": "kmz"}}, {"type": "Feature", "geometry": {"type": "Point", "coordinates": [20.02563479657871, 50.93226696449191]}, "properties": {"bus": 152, "subst_id": 84, "station": "152 LES Leszno", "matched_name": "Oleszno", "match_score": 0.923, "source": "kmz"}}, {"type": "Feature", "geometry": {"type": "Point", "coordinates": [15.279623, 52.063547]}, "properties": {"bus": 153, "subst_id": 85, "station": "153 LSN Le?ni\u00f3w", "matched_name": "153 LSN Le?n", "match_score": 1.0, "source": "epc"}}, {"type": "Feature", "geometry": {"type": "Point", "coordinates": [15.279623, 52.063547]}, "properties": {"bus": 154, "subst_id": 85, "station": "153 LSN Le?ni\u00f3w", "matched_name": "153 LSN Le?n", "match_score": 1.0, "source": "epc"}}, {"type": "Feature", "geometry": {"type": "Point", "coordinates": [14.92158566143028, 50.9293018242358]}, "properties": {"bus": 155, "subst_id": 86, "station": "Turow MIK", "matched_name": "Tur\u00f3w T-1", "match_score": 0.5, "source": "kmz"}}, {"type": "Feature", "geometry": {"type": "Point", "coordinates": [14.92158566143028, 50.9293018242358]}, "properties": {"bus": 156, "subst_id": 86, "station": "Turow MIK", "matched_name": "Tur\u00f3w T-1", "match_score": 0.5, "source": "kmz"}}, {"type": "Feature", "geometry": {"type": "Point", "coordinates": [14.92158566143028, 50.9293018242358]}, "properties": {"bus": 157, "subst_id": 86, "station": "Turow MIK", "matched_name": "Tur\u00f3w T-1", "match_score": 0.5, "source": "kmz"}}, {"type": "Feature", "geometry": {"type": "Point", "coordinates": [14.92158566143028, 50.9293018242358]}, "properties": {"bus": 158, "subst_id": 86, "station": "Turow MIK", "matched_name": "Tur\u00f3w T-1", "match_score": 0.5, "source": "kmz"}}, {"type": "Feature", "geometry": {"type": "Point", "coordinates": [14.92158566143028, 50.9293018242358]}, "properties": {"bus": 159, "subst_id": 86, "station": "Turow MIK", "matched_name": "Tur\u00f3w T-1", "match_score": 0.5, "source": "kmz"}}, {"type": "Feature", "geometry": {"type": "Point", "coordinates": [14.8956287904281, 53.35543939134868]}, "properties": {"bus": 160, "subst_id": 87, "station": "160 MON - Morzyczyn", "matched_name": "Morzyczyn [MON]", "match_score": 0.5, "source": "kmz"}}, {"type": "Feature", "geometry": {"type": "Point", "coordinates": [14.8956287904281, 53.35543939134868]}, "properties": {"bus": 161, "subst_id": 87, "station": "160 MON - Morzyczyn", "matched_name": "Morzyczyn [MON]", "match_score": 0.5, "source": "kmz"}}, {"type": "Feature", "geometry": {"type": "Point", "coordinates": [17.908793, 51.640774]}, "properties": {"bus": 162, "subst_id": 88, "station": "162 OSR Near Ostro Wielkopolski", "matched_name": "162 OSR Near", "match_score": 1.0, "source": "epc"}}, {"type": "Feature", "geometry": {"type": "Point", "coordinates": [17.07198586958999, 51.32416674606175]}, "properties": {"bus": 163, "subst_id": 89, "station": "163 PAS Near Trzebnica & Wrclaw", "matched_name": "Trzebnica", "match_score": 0.5, "source": "kmz"}}, {"type": "Feature", "geometry": {"type": "Point", "coordinates": [17.07198586958999, 51.32416674606175]}, "properties": {"bus": 164, "subst_id": 89, "station": "163 PAS Near Trzebnica & Wrclaw", "matched_name": "Trzebnica", "match_score": 0.5, "source": "kmz"}}, {"type": "Feature", "geometry": {"type": "Point", "coordinates": [18.23574752474844, 52.30490399336438]}, "properties": {"bus": 165, "subst_id": 90, "station": "Patnow", "matched_name": "P\u0105tn\u00f3w [PAT]", "match_score": 0.5, "source": "kmz"}}, {"type": "Feature", "geometry": {"type": "Point", "coordinates": [18.23574752474844, 52.30490399336438]}, "properties": {"bus": 166, "subst_id": 90, "station": "Patnow", "matched_name": "P\u0105tn\u00f3w [PAT]", "match_score": 0.5, "source": "kmz"}}, {"type": "Feature", "geometry": {"type": "Point", "coordinates": [18.23574752474844, 52.30490399336438]}, "properties": {"bus": 167, "subst_id": 90, "station": "Patnow", "matched_name": "P\u0105tn\u00f3w [PAT]", "match_score": 0.5, "source": "kmz"}}, {"type": "Feature", "geometry": {"type": "Point", "coordinates": [16.812069, 53.070379]}, "properties": {"bus": 168, "subst_id": 91, "station": "168 PKW Pila", "matched_name": "168 PKW Pila", "match_score": 1.0, "source": "epc"}}, {"type": "Feature", "geometry": {"type": "Point", "coordinates": [14.52199206058341, 53.56429146214428]}, "properties": {"bus": 169, "subst_id": 92, "station": "169 PLC Police", "matched_name": "Police [PLC]", "match_score": 0.5, "source": "kmz"}}, {"type": "Feature", "geometry": {"type": "Point", "coordinates": [16.869637, 52.418031]}, "properties": {"bus": 170, "subst_id": 93, "station": "170 PLE", "matched_name": "170 PLE", "match_score": 1.0, "source": "epc"}}, {"type": "Feature", "geometry": {"type": "Point", "coordinates": [16.869637, 52.418031]}, "properties": {"bus": 171, "subst_id": 93, "station": "170 PLE", "matched_name": "170 PLE", "match_score": 1.0, "source": "epc"}}, {"type": "Feature", "geometry": {"type": "Point", "coordinates": [16.869637, 52.418031]}, "properties": {"bus": 172, "subst_id": 93, "station": "170 PLE", "matched_name": "170 PLE", "match_score": 1.0, "source": "epc"}}, {"type": "Feature", "geometry": {"type": "Point", "coordinates": [16.869637, 52.418031]}, "properties": {"bus": 173, "subst_id": 93, "station": "170 PLE", "matched_name": "170 PLE", "match_score": 1.0, "source": "epc"}}, {"type": "Feature", "geometry": {"type": "Point", "coordinates": [16.070109, 51.524006]}, "properties": {"bus": 174, "subst_id": 94, "station": "174 POL", "matched_name": "174 POL", "match_score": 1.0, "source": "epc"}}, {"type": "Feature", "geometry": {"type": "Point", "coordinates": [16.070109, 51.524006]}, "properties": {"bus": 175, "subst_id": 94, "station": "174 POL", "matched_name": "174 POL", "match_score": 1.0, "source": "epc"}}, {"type": "Feature", "geometry": {"type": "Point", "coordinates": [17.10108629168806, 52.40478649451832]}, "properties": {"bus": 176, "subst_id": 95, "station": "176 PPD Swarz?dz", "matched_name": "Swarz\u0119dz", "match_score": 0.875, "source": "kmz"}}, {"type": "Feature", "geometry": {"type": "Point", "coordinates": [16.352912959395, 50.85423707229816]}, "properties": {"bus": 177, "subst_id": 96, "station": "177 SWI Near Swiebodzice", "matched_name": "\u015awiebodzice [SWI]", "match_score": 0.5, "source": "kmz"}}, {"type": "Feature", "geometry": {"type": "Point", "coordinates": [16.352912959395, 50.85423707229816]}, "properties": {"bus": 178, "subst_id": 96, "station": "177 SWI Near Swiebodzice", "matched_name": "\u015awiebodzice [SWI]", "match_score": 0.5, "source": "kmz"}}, {"type": "Feature", "geometry": {"type": "Point", "coordinates": [16.766434, 50.58845]}, "properties": {"bus": 179, "subst_id": 97, "station": "179 ZBK Near Zabkowice Slaskie", "matched_name": "179 ZBK Near", "match_score": 1.0, "source": "epc"}}, {"type": "Feature", "geometry": {"type": "Point", "coordinates": [16.766434, 50.58845]}, "properties": {"bus": 180, "subst_id": 97, "station": "179 ZBK Near Zabkowice Slaskie", "matched_name": "179 ZBK Near", "match_score": 1.0, "source": "epc"}}, {"type": "Feature", "geometry": {"type": "Point", "coordinates": [15.98318, 51.674651]}, "properties": {"bus": 181, "subst_id": 98, "station": "181 ZUK ?ukowice", "matched_name": "181 ZUK ?uko", "match_score": 1.0, "source": "epc"}}, {"type": "Feature", "geometry": {"type": "Point", "coordinates": [18.08989621487216, 53.09912198795206]}, "properties": {"bus": 182, "subst_id": 99, "station": "182 BYD Bydgoszcz", "matched_name": "EC Bydgoszcz", "match_score": 1.0, "source": "kmz"}}, {"type": "Feature", "geometry": {"type": "Point", "coordinates": [16.09541349027697, 54.12621186214356]}, "properties": {"bus": 183, "subst_id": 100, "station": "183 DUN Dunowo", "matched_name": "Dunowo [DUN]", "match_score": 0.5, "source": "kmz"}}, {"type": "Feature", "geometry": {"type": "Point", "coordinates": [16.09541349027697, 54.12621186214356]}, "properties": {"bus": 184, "subst_id": 100, "station": "183 DUN Dunowo", "matched_name": "Dunowo [DUN]", "match_score": 0.5, "source": "kmz"}}, {"type": "Feature", "geometry": {"type": "Point", "coordinates": [16.09541349027697, 54.12621186214356]}, "properties": {"bus": 185, "subst_id": 100, "station": "183 DUN Dunowo", "matched_name": "Dunowo [DUN]", "match_score": 0.5, "source": "kmz"}}, {"type": "Feature", "geometry": {"type": "Point", "coordinates": [18.63642309328537, 54.37980153675144]}, "properties": {"bus": 186, "subst_id": 101, "station": "186 GBL Gdansk", "matched_name": "Gda\u0144sk II", "match_score": 1.0, "source": "kmz"}}, {"type": "Feature", "geometry": {"type": "Point", "coordinates": [18.63642309328537, 54.37980153675144]}, "properties": {"bus": 187, "subst_id": 101, "station": "186 GBL Gdansk", "matched_name": "Gda\u0144sk II", "match_score": 1.0, "source": "kmz"}}, {"type": "Feature", "geometry": {"type": "Point", "coordinates": [18.63642309328537, 54.37980153675144]}, "properties": {"bus": 188, "subst_id": 102, "station": "188 GDA Gdansk", "matched_name": "Gda\u0144sk II", "match_score": 1.0, "source": "kmz"}}, {"type": "Feature", "geometry": {"type": "Point", "coordinates": [18.63642309328537, 54.37980153675144]}, "properties": {"bus": 189, "subst_id": 102, "station": "188 GDA Gdansk", "matched_name": "Gda\u0144sk II", "match_score": 1.0, "source": "kmz"}}, {"type": "Feature", "geometry": {"type": "Point", "coordinates": [18.735241, 53.528536]}, "properties": {"bus": 190, "subst_id": 103, "station": "190 GRU", "matched_name": "190 GRU", "match_score": 1.0, "source": "epc"}}, {"type": "Feature", "geometry": {"type": "Point", "coordinates": [18.735241, 53.528536]}, "properties": {"bus": 191, "subst_id": 103, "station": "190 GRU", "matched_name": "190 GRU", "match_score": 1.0, "source": "epc"}}, {"type": "Feature", "geometry": {"type": "Point", "coordinates": [18.735241, 53.528536]}, "properties": {"bus": 192, "subst_id": 103, "station": "190 GRU", "matched_name": "190 GRU", "match_score": 1.0, "source": "epc"}}, {"type": "Feature", "geometry": {"type": "Point", "coordinates": [18.56632295920399, 49.96550033157325]}, "properties": {"bus": 193, "subst_id": 104, "station": "193 JAS Jastrz?bie", "matched_name": "Jastrz\u0119bie", "match_score": 0.9, "source": "kmz"}}, {"type": "Feature", "geometry": {"type": "Point", "coordinates": [18.56632295920399, 49.96550033157325]}, "properties": {"bus": 194, "subst_id": 104, "station": "193 JAS Jastrz?bie", "matched_name": "Jastrz\u0119bie", "match_score": 0.9, "source": "kmz"}}, {"type": "Feature", "geometry": {"type": "Point", "coordinates": [20.288529, 53.862963]}, "properties": {"bus": 195, "subst_id": 105, "station": "195 OLM Lomy", "matched_name": "195 OLM Lomy", "match_score": 1.0, "source": "epc"}}, {"type": "Feature", "geometry": {"type": "Point", "coordinates": [20.288529, 53.862963]}, "properties": {"bus": 196, "subst_id": 105, "station": "195 OLM Lomy", "matched_name": "195 OLM Lomy", "match_score": 1.0, "source": "epc"}}, {"type": "Feature", "geometry": {"type": "Point", "coordinates": [16.13359166539545, 52.11007269691692]}, "properties": {"bus": 197, "subst_id": 106, "station": "197 OLS Olsztyn", "matched_name": "Wolsztyn", "match_score": 0.933, "source": "kmz"}}, {"type": "Feature", "geometry": {"type": "Point", "coordinates": [16.13359166539545, 52.11007269691692]}, "properties": {"bus": 198, "subst_id": 106, "station": "197 OLS Olsztyn", "matched_name": "Wolsztyn", "match_score": 0.933, "source": "kmz"}}, {"type": "Feature", "geometry": {"type": "Point", "coordinates": [16.983621, 54.470346]}, "properties": {"bus": 199, "subst_id": 107, "station": "199 Interconnection to Sweden (SLK)", "matched_name": "199 Intercon", "match_score": 1.0, "source": "epc"}}, {"type": "Feature", "geometry": {"type": "Point", "coordinates": [16.983621, 54.470346]}, "properties": {"bus": 200, "subst_id": 107, "station": "199 Interconnection to Sweden (SLK)", "matched_name": "199 Intercon", "match_score": 1.0, "source": "epc"}}, {"type": "Feature", "geometry": {"type": "Point", "coordinates": [18.671336, 53.027831]}, "properties": {"bus": 201, "subst_id": 108, "station": "201 TEL Instel", "matched_name": "201 TEL Inst", "match_score": 1.0, "source": "epc"}}, {"type": "Feature", "geometry": {"type": "Point", "coordinates": [18.671336, 53.027831]}, "properties": {"bus": 202, "subst_id": 108, "station": "201 TEL Instel", "matched_name": "201 TEL Inst", "match_score": 1.0, "source": "epc"}}, {"type": "Feature", "geometry": {"type": "Point", "coordinates": [19.04937, 52.680594]}, "properties": {"bus": 203, "subst_id": 109, "station": "203 WLA Wloclawek", "matched_name": "203 WLA Wloc", "match_score": 1.0, "source": "epc"}}, {"type": "Feature", "geometry": {"type": "Point", "coordinates": [19.04937, 52.680594]}, "properties": {"bus": 204, "subst_id": 109, "station": "203 WLA Wloclawek", "matched_name": "203 WLA Wloc", "match_score": 1.0, "source": "epc"}}, {"type": "Feature", "geometry": {"type": "Point", "coordinates": [18.10749785983897, 54.71867530744946]}, "properties": {"bus": 205, "subst_id": 110, "station": "Zarnowiec", "matched_name": "\u017barnowiec [ZRC]", "match_score": 0.5, "source": "kmz"}}, {"type": "Feature", "geometry": {"type": "Point", "coordinates": [18.10749785983897, 54.71867530744946]}, "properties": {"bus": 206, "subst_id": 110, "station": "Zarnowiec", "matched_name": "\u017barnowiec [ZRC]", "match_score": 0.5, "source": "kmz"}}, {"type": "Feature", "geometry": {"type": "Point", "coordinates": [16.71091224903439, 54.02400489739453]}, "properties": {"bus": 207, "subst_id": 111, "station": "207 ZYD Zydowo", "matched_name": "\u017bydowo [ZYD]", "match_score": 0.5, "source": "kmz"}}, {"type": "Feature", "geometry": {"type": "Point", "coordinates": [16.71091224903439, 54.02400489739453]}, "properties": {"bus": 208, "subst_id": 111, "station": "207 ZYD Zydowo", "matched_name": "\u017bydowo [ZYD]", "match_score": 0.5, "source": "kmz"}}, {"type": "Feature", "geometry": {"type": "Point", "coordinates": [19.38267237135499, 51.8311637730222]}, "properties": {"bus": 229, "subst_id": 18, "station": "34 ZGI Zgierz", "matched_name": "Zgierz [ZGI]", "match_score": 0.5, "source": "kmz"}}, {"type": "Feature", "geometry": {"type": "Point", "coordinates": [19.38267237135499, 51.8311637730222]}, "properties": {"bus": 230, "subst_id": 18, "station": "34 ZGI Zgierz", "matched_name": "Zgierz [ZGI]", "match_score": 0.5, "source": "kmz"}}, {"type": "Feature", "geometry": {"type": "Point", "coordinates": [19.36970612858122, 51.37514372219606]}, "properties": {"bus": 245, "subst_id": 14, "station": "Belchatow ROG", "matched_name": "Be\u0142chat\u00f3w", "match_score": 0.889, "source": "kmz"}}, {"type": "Feature", "geometry": {"type": "Point", "coordinates": [19.36970612858122, 51.37514372219606]}, "properties": {"bus": 246, "subst_id": 14, "station": "Belchatow ROG", "matched_name": "Be\u0142chat\u00f3w", "match_score": 0.889, "source": "kmz"}}, {"type": "Feature", "geometry": {"type": "Point", "coordinates": [22.360136, 53.833765]}, "properties": {"bus": 248, "subst_id": 2, "station": "3 ELK Elk", "matched_name": "3 ELK Elk", "match_score": 1.0, "source": "epc"}}, {"type": "Feature", "geometry": {"type": "Point", "coordinates": [22.360136, 53.833765]}, "properties": {"bus": 249, "subst_id": 2, "station": "3 ELK Elk", "matched_name": "3 ELK Elk", "match_score": 1.0, "source": "epc"}}, {"type": "Feature", "geometry": {"type": "Point", "coordinates": [19.567643, 51.76127]}, "properties": {"bus": 275, "subst_id": 3, "station": "4 JAN Sub", "matched_name": "4 JAN Sub", "match_score": 1.0, "source": "epc"}}, {"type": "Feature", "geometry": {"type": "Point", "coordinates": [19.567643, 51.76127]}, "properties": {"bus": 276, "subst_id": 3, "station": "4 JAN Sub", "matched_name": "4 JAN Sub", "match_score": 1.0, "source": "epc"}}, {"type": "Feature", "geometry": {"type": "Point", "coordinates": [21.270414, 52.25798]}, "properties": {"bus": 339, "subst_id": 4, "station": "6 MIL", "matched_name": "6 MIL", "match_score": 1.0, "source": "epc"}}, {"type": "Feature", "geometry": {"type": "Point", "coordinates": [21.270414, 52.25798]}, "properties": {"bus": 340, "subst_id": 4, "station": "6 MIL", "matched_name": "6 MIL", "match_score": 1.0, "source": "epc"}}, {"type": "Feature", "geometry": {"type": "Point", "coordinates": [21.042793, 52.215282]}, "properties": {"bus": 351, "subst_id": 5, "station": "10 MOR", "matched_name": "10 MOR", "match_score": 1.0, "source": "epc"}}, {"type": "Feature", "geometry": {"type": "Point", "coordinates": [21.042793, 52.215282]}, "properties": {"bus": 352, "subst_id": 5, "station": "10 MOR", "matched_name": "10 MOR", "match_score": 1.0, "source": "epc"}}, {"type": "Feature", "geometry": {"type": "Point", "coordinates": [21.042793, 52.215282]}, "properties": {"bus": 353, "subst_id": 5, "station": "10 MOR", "matched_name": "10 MOR", "match_score": 1.0, "source": "epc"}}, {"type": "Feature", "geometry": {"type": "Point", "coordinates": [21.042793, 52.215282]}, "properties": {"bus": 354, "subst_id": 5, "station": "10 MOR", "matched_name": "10 MOR", "match_score": 1.0, "source": "epc"}}, {"type": "Feature", "geometry": {"type": "Point", "coordinates": [20.869541, 52.28928]}, "properties": {"bus": 358, "subst_id": 6, "station": "13 MSK", "matched_name": "13 MSK", "match_score": 1.0, "source": "epc"}}, {"type": "Feature", "geometry": {"type": "Point", "coordinates": [20.869541, 52.28928]}, "properties": {"bus": 359, "subst_id": 6, "station": "13 MSK", "matched_name": "13 MSK", "match_score": 1.0, "source": "epc"}}, {"type": "Feature", "geometry": {"type": "Point", "coordinates": [23.761886, 52.834167]}, "properties": {"bus": 366, "subst_id": 7, "station": "15 NAR Narewka", "matched_name": "15 NAR Narew", "match_score": 1.0, "source": "epc"}}, {"type": "Feature", "geometry": {"type": "Point", "coordinates": [21.538187, 53.15154]}, "properties": {"bus": 382, "subst_id": 8, "station": "Ostroleka", "matched_name": "Ostroleka", "match_score": 1.0, "source": "epc"}}, {"type": "Feature", "geometry": {"type": "Point", "coordinates": [21.538187, 53.15154]}, "properties": {"bus": 383, "subst_id": 8, "station": "Ostroleka", "matched_name": "Ostroleka", "match_score": 1.0, "source": "epc"}}, {"type": "Feature", "geometry": {"type": "Point", "coordinates": [19.419561, 51.688017]}, "properties": {"bus": 388, "subst_id": 9, "station": "19 PAB Near Lodz& Rzgow", "matched_name": "19 PAB Near ", "match_score": 1.0, "source": "epc"}}, {"type": "Feature", "geometry": {"type": "Point", "coordinates": [19.419561, 51.688017]}, "properties": {"bus": 389, "subst_id": 9, "station": "19 PAB Near Lodz& Rzgow", "matched_name": "19 PAB Near ", "match_score": 1.0, "source": "epc"}}, {"type": "Feature", "geometry": {"type": "Point", "coordinates": [19.1778, 51.21298]}, "properties": {"bus": 390, "subst_id": 1, "station": "1 BEK Near Pajeczno& left bottom of ROG", "matched_name": "1 BEK Near P", "match_score": 1.0, "source": "epc"}}, {"type": "Feature", "geometry": {"type": "Point", "coordinates": [19.1778, 51.21298]}, "properties": {"bus": 391, "subst_id": 1, "station": "1 BEK Near Pajeczno& left bottom of ROG", "matched_name": "1 BEK Near P", "match_score": 1.0, "source": "epc"}}, {"type": "Feature", "geometry": {"type": "Point", "coordinates": [19.680669, 52.600717]}, "properties": {"bus": 395, "subst_id": 10, "station": "21 PDE Plock", "matched_name": "21 PDE Plock", "match_score": 1.0, "source": "epc"}}, {"type": "Feature", "geometry": {"type": "Point", "coordinates": [19.680669, 52.600717]}, "properties": {"bus": 396, "subst_id": 10, "station": "21 PDE Plock", "matched_name": "21 PDE Plock", "match_score": 1.0, "source": "epc"}}, {"type": "Feature", "geometry": {"type": "Point", "coordinates": [21.02048, 52.12044]}, "properties": {"bus": 401, "subst_id": 11, "station": "23 PIA", "matched_name": "23 PIA", "match_score": 1.0, "source": "epc"}}, {"type": "Feature", "geometry": {"type": "Point", "coordinates": [21.02048, 52.12044]}, "properties": {"bus": 402, "subst_id": 11, "station": "23 PIA", "matched_name": "23 PIA", "match_score": 1.0, "source": "epc"}}, {"type": "Feature", "geometry": {"type": "Point", "coordinates": [19.645897, 51.432817]}, "properties": {"bus": 403, "subst_id": 12, "station": "24 PIO Near LODZ, Piotrkow", "matched_name": "24 PIO Near ", "match_score": 1.0, "source": "epc"}}, {"type": "Feature", "geometry": {"type": "Point", "coordinates": [19.645897, 51.432817]}, "properties": {"bus": 404, "subst_id": 12, "station": "24 PIO Near LODZ, Piotrkow", "matched_name": "24 PIO Near ", "match_score": 1.0, "source": "epc"}}, {"type": "Feature", "geometry": {"type": "Point", "coordinates": [20.41239, 52.741399]}, "properties": {"bus": 410, "subst_id": 13, "station": "25 PLO", "matched_name": "25 PLO", "match_score": 1.0, "source": "epc"}}, {"type": "Feature", "geometry": {"type": "Point", "coordinates": [20.25913574396917, 52.23268339376029]}, "properties": {"bus": 461, "subst_id": 15, "station": "30 SOC Sochaczew", "matched_name": "Sochaczew [SOC]", "match_score": 0.5, "source": "kmz"}}, {"type": "Feature", "geometry": {"type": "Point", "coordinates": [20.25913574396917, 52.23268339376029]}, "properties": {"bus": 462, "subst_id": 15, "station": "30 SOC Sochaczew", "matched_name": "Sochaczew [SOC]", "match_score": 0.5, "source": "kmz"}}, {"type": "Feature", "geometry": {"type": "Point", "coordinates": [18.56227853780147, 51.23351437653202]}, "properties": {"bus": 486, "subst_id": 16, "station": "31 TRE near klobuck & Wielun", "matched_name": "Wielu\u0144", "match_score": 0.5, "source": "kmz"}}, {"type": "Feature", "geometry": {"type": "Point", "coordinates": [18.56227853780147, 51.23351437653202]}, "properties": {"bus": 487, "subst_id": 16, "station": "31 TRE near klobuck & Wielun", "matched_name": "Wielu\u0144", "match_score": 0.5, "source": "kmz"}}, {"type": "Feature", "geometry": {"type": "Point", "coordinates": [20.00603, 50.051795]}, "properties": {"bus": 534, "subst_id": 371, "station": "Krakow Leg", "matched_name": "Krakow Leg", "match_score": 1.0, "source": "epc"}}, {"type": "Feature", "geometry": {"type": "Point", "coordinates": [20.00603, 50.051795]}, "properties": {"bus": 535, "subst_id": 371, "station": "Krakow Leg", "matched_name": "Krakow Leg", "match_score": 1.0, "source": "epc"}}, {"type": "Feature", "geometry": {"type": "Point", "coordinates": [21.12938678166021, 52.28686537578297]}, "properties": {"bus": 543, "subst_id": 17, "station": "32 WTO Zabki", "matched_name": "Z\u0105bki", "match_score": 1.0, "source": "kmz"}}, {"type": "Feature", "geometry": {"type": "Point", "coordinates": [19.38267237135499, 51.8311637730222]}, "properties": {"bus": 570, "subst_id": 18, "station": "34 ZGI Zgierz", "matched_name": "Zgierz [ZGI]", "match_score": 0.5, "source": "kmz"}}, {"type": "Feature", "geometry": {"type": "Point", "coordinates": [19.38267237135499, 51.8311637730222]}, "properties": {"bus": 571, "subst_id": 18, "station": "34 ZGI Zgierz", "matched_name": "Zgierz [ZGI]", "match_score": 0.5, "source": "kmz"}}, {"type": "Feature", "geometry": {"type": "Point", "coordinates": [22.58140934407807, 51.23322431301849]}, "properties": {"bus": 583, "subst_id": 19, "station": "35 ABR Near Lublin & Poniatowa", "matched_name": "Lublin Elektrownia", "match_score": 0.5, "source": "kmz"}}, {"type": "Feature", "geometry": {"type": "Point", "coordinates": [22.58140934407807, 51.23322431301849]}, "properties": {"bus": 584, "subst_id": 19, "station": "35 ABR Near Lublin & Poniatowa", "matched_name": "Lublin Elektrownia", "match_score": 0.5, "source": "kmz"}}, {"type": "Feature", "geometry": {"type": "Point", "coordinates": [21.59533760102916, 50.06331220814898]}, "properties": {"bus": 589, "subst_id": 20, "station": "36 BGC Near Rzeszow & Ropczyce", "matched_name": "Ropczyce", "match_score": 0.5, "source": "kmz"}}, {"type": "Feature", "geometry": {"type": "Point", "coordinates": [21.59533760102916, 50.06331220814898]}, "properties": {"bus": 590, "subst_id": 20, "station": "36 BGC Near Rzeszow & Ropczyce", "matched_name": "Ropczyce", "match_score": 0.5, "source": "kmz"}}, {"type": "Feature", "geometry": {"type": "Point", "coordinates": [21.69974494155307, 50.57672580669463]}, "properties": {"bus": 609, "subst_id": 21, "station": "37 CHM Near Tarnobrzeg", "matched_name": "Tarnobrzeg", "match_score": 1.0, "source": "kmz"}}, {"type": "Feature", "geometry": {"type": "Point", "coordinates": [21.69974494155307, 50.57672580669463]}, "properties": {"bus": 610, "subst_id": 21, "station": "37 CHM Near Tarnobrzeg", "matched_name": "Tarnobrzeg", "match_score": 1.0, "source": "kmz"}}, {"type": "Feature", "geometry": {"type": "Point", "coordinates": [23.443027, 51.171112]}, "properties": {"bus": 613, "subst_id": 22, "station": "39 CHS Near Chelm, Sawin", "matched_name": "39 CHS Near ", "match_score": 1.0, "source": "epc"}}, {"type": "Feature", "geometry": {"type": "Point", "coordinates": [23.443027, 51.171112]}, "properties": {"bus": 614, "subst_id": 22, "station": "39 CHS Near Chelm, Sawin", "matched_name": "39 CHS Near ", "match_score": 1.0, "source": "epc"}}, {"type": "Feature", "geometry": {"type": "Point", "coordinates": [21.54003222180609, 51.57444801032769]}, "properties": {"bus": 660, "subst_id": 24, "station": "Kozienice KOZ", "matched_name": "Kozienice Miasto", "match_score": 0.5, "source": "kmz"}}, {"type": "Feature", "geometry": {"type": "Point", "coordinates": [21.54003222180609, 51.57444801032769]}, "properties": {"bus": 661, "subst_id": 24, "station": "Kozienice KOZ", "matched_name": "Kozienice Miasto", "match_score": 0.5, "source": "kmz"}}, {"type": "Feature", "geometry": {"type": "Point", "coordinates": [20.61341300059581, 50.89983022363929]}, "properties": {"bus": 663, "subst_id": 25, "station": "47 KPK Near Kielce", "matched_name": "EC Kielce", "match_score": 1.0, "source": "kmz"}}, {"type": "Feature", "geometry": {"type": "Point", "coordinates": [22.01111943232085, 49.71120957497161]}, "properties": {"bus": 665, "subst_id": 26, "station": "48 KRI Near Krosno & Brzozow", "matched_name": "Brzoz\u00f3w", "match_score": 0.5, "source": "kmz"}}, {"type": "Feature", "geometry": {"type": "Point", "coordinates": [15.49038783287647, 51.95068573290516]}, "properties": {"bus": 681, "subst_id": 488, "station": "Zielona Gora power station", "matched_name": "EC Zielona G\u00f3ra", "match_score": 0.5, "source": "kmz"}}, {"type": "Feature", "geometry": {"type": "Point", "coordinates": [15.49038783287647, 51.95068573290516]}, "properties": {"bus": 682, "subst_id": 488, "station": "Zielona Gora power station", "matched_name": "EC Zielona G\u00f3ra", "match_score": 0.5, "source": "kmz"}}, {"type": "Feature", "geometry": {"type": "Point", "coordinates": [22.58140934407807, 51.23322431301849]}, "properties": {"bus": 692, "subst_id": 27, "station": "50 LSY Near Lublin", "matched_name": "Lublin Elektrownia", "match_score": 1.0, "source": "kmz"}}, {"type": "Feature", "geometry": {"type": "Point", "coordinates": [22.58140934407807, 51.23322431301849]}, "properties": {"bus": 693, "subst_id": 27, "station": "50 LSY Near Lublin", "matched_name": "Lublin Elektrownia", "match_score": 1.0, "source": "kmz"}}, {"type": "Feature", "geometry": {"type": "Point", "coordinates": [22.98585583431358, 50.68316933850986]}, "properties": {"bus": 710, "subst_id": 28, "station": "51 MKR Near Szczebrzeszyn", "matched_name": "Szczebrzeszyn", "match_score": 1.0, "source": "kmz"}}, {"type": "Feature", "geometry": {"type": "Point", "coordinates": [22.98585583431358, 50.68316933850986]}, "properties": {"bus": 711, "subst_id": 28, "station": "51 MKR Near Szczebrzeszyn", "matched_name": "Szczebrzeszyn", "match_score": 1.0, "source": "kmz"}}, {"type": "Feature", "geometry": {"type": "Point", "coordinates": [21.37740101044465, 50.96126889517567]}, "properties": {"bus": 726, "subst_id": 29, "station": "53 OSC Near Ostrowiec, Cmielow", "matched_name": "Ostrowiec II", "match_score": 0.5, "source": "kmz"}}, {"type": "Feature", "geometry": {"type": "Point", "coordinates": [21.37740101044465, 50.96126889517567]}, "properties": {"bus": 727, "subst_id": 29, "station": "53 OSC Near Ostrowiec, Cmielow", "matched_name": "Ostrowiec II", "match_score": 0.5, "source": "kmz"}}, {"type": "Feature", "geometry": {"type": "Point", "coordinates": [21.37740101044465, 50.96126889517567]}, "properties": {"bus": 730, "subst_id": 29, "station": "53 OSC Near Ostrowiec, Cmielow", "matched_name": "Ostrowiec II", "match_score": 0.5, "source": "kmz"}}, {"type": "Feature", "geometry": {"type": "Point", "coordinates": [21.32290675563104, 50.43814078633661]}, "properties": {"bus": 736, "subst_id": 30, "station": "Polaniec PEL", "matched_name": "Po\u0142aniec", "match_score": 0.875, "source": "kmz"}}, {"type": "Feature", "geometry": {"type": "Point", "coordinates": [21.32290675563104, 50.43814078633661]}, "properties": {"bus": 737, "subst_id": 30, "station": "Polaniec PEL", "matched_name": "Po\u0142aniec", "match_score": 0.875, "source": "kmz"}}, {"type": "Feature", "geometry": {"type": "Point", "coordinates": [20.61341300059581, 50.89983022363929]}, "properties": {"bus": 754, "subst_id": 32, "station": "61 RAD Near Checiney & Kielce", "matched_name": "EC Kielce", "match_score": 0.5, "source": "kmz"}}, {"type": "Feature", "geometry": {"type": "Point", "coordinates": [20.61341300059581, 50.89983022363929]}, "properties": {"bus": 755, "subst_id": 32, "station": "61 RAD Near Checiney & Kielce", "matched_name": "EC Kielce", "match_score": 0.5, "source": "kmz"}}, {"type": "Feature", "geometry": {"type": "Point", "coordinates": [21.14209924945965, 51.3878016969047]}, "properties": {"bus": 764, "subst_id": 33, "station": "62 ROZ Near Radom, Skaryszew", "matched_name": "Radom ZM", "match_score": 0.5, "source": "kmz"}}, {"type": "Feature", "geometry": {"type": "Point", "coordinates": [21.14209924945965, 51.3878016969047]}, "properties": {"bus": 765, "subst_id": 33, "station": "62 ROZ Near Radom, Skaryszew", "matched_name": "Radom ZM", "match_score": 0.5, "source": "kmz"}}, {"type": "Feature", "geometry": {"type": "Point", "coordinates": [21.808421, 50.235914]}, "properties": {"bus": 774, "subst_id": 34, "station": "64 RZE Near Glogow Malopol-ski & Kolbuozowa", "matched_name": "64 RZE Near ", "match_score": 1.0, "source": "epc"}}, {"type": "Feature", "geometry": {"type": "Point", "coordinates": [21.808421, 50.235914]}, "properties": {"bus": 775, "subst_id": 34, "station": "64 RZE Near Glogow Malopol-ski & Kolbuozowa", "matched_name": "64 RZE Near ", "match_score": 1.0, "source": "epc"}}, {"type": "Feature", "geometry": {"type": "Point", "coordinates": [22.45564492089715, 49.3978067104313]}, "properties": {"bus": 792, "subst_id": 581, "station": "Solina", "matched_name": "Solina", "match_score": 1.0, "source": "kmz"}}, {"type": "Feature", "geometry": {"type": "Point", "coordinates": [22.05566214295427, 50.55059329233153]}, "properties": {"bus": 803, "subst_id": 35, "station": "66 STW Stalowa Wola", "matched_name": "Huta Stalowa Wola 0", "match_score": 0.667, "source": "kmz"}}, {"type": "Feature", "geometry": {"type": "Point", "coordinates": [22.05566214295427, 50.55059329233153]}, "properties": {"bus": 804, "subst_id": 35, "station": "66 STW Stalowa Wola", "matched_name": "Huta Stalowa Wola 0", "match_score": 0.667, "source": "kmz"}}, {"type": "Feature", "geometry": {"type": "Point", "coordinates": [22.98585583431358, 50.68316933850986]}, "properties": {"bus": 828, "subst_id": 37, "station": "68 ZAM Near Zamos, Szczebrzeszyn", "matched_name": "Szczebrzeszyn", "match_score": 0.5, "source": "kmz"}}, {"type": "Feature", "geometry": {"type": "Point", "coordinates": [19.00182, 50.80841]}, "properties": {"bus": 850, "subst_id": 38, "station": "69 ANI Near Blachownia & Wreczyca", "matched_name": "69 ANI Near ", "match_score": 1.0, "source": "epc"}}, {"type": "Feature", "geometry": {"type": "Point", "coordinates": [19.00182, 50.80841]}, "properties": {"bus": 851, "subst_id": 38, "station": "69 ANI Near Blachownia & Wreczyca", "matched_name": "69 ANI Near ", "match_score": 1.0, "source": "epc"}}, {"type": "Feature", "geometry": {"type": "Point", "coordinates": [19.16956221583443, 50.08635623160367]}, "properties": {"bus": 880, "subst_id": 41, "station": "72 BIR Near Bierun", "matched_name": "Bieru\u0144 [BIR]", "match_score": 0.5, "source": "kmz"}}, {"type": "Feature", "geometry": {"type": "Point", "coordinates": [19.16956221583443, 50.08635623160367]}, "properties": {"bus": 881, "subst_id": 41, "station": "72 BIR Near Bierun", "matched_name": "Bieru\u0144 [BIR]", "match_score": 0.5, "source": "kmz"}}, {"type": "Feature", "geometry": {"type": "Point", "coordinates": [18.25439644187155, 50.31774665920317]}, "properties": {"bus": 895, "subst_id": 42, "station": "74 BLA Near KEDZIERZYN KOZLE", "matched_name": "K\u0119dzierzyn [KED]", "match_score": 0.867, "source": "kmz"}}, {"type": "Feature", "geometry": {"type": "Point", "coordinates": [18.25439644187155, 50.31774665920317]}, "properties": {"bus": 896, "subst_id": 42, "station": "74 BLA Near KEDZIERZYN KOZLE", "matched_name": "K\u0119dzierzyn [KED]", "match_score": 0.867, "source": "kmz"}}, {"type": "Feature", "geometry": {"type": "Point", "coordinates": [18.25439644187155, 50.31774665920317]}, "properties": {"bus": 897, "subst_id": 42, "station": "74 BLA Near KEDZIERZYN KOZLE", "matched_name": "K\u0119dzierzyn [KED]", "match_score": 0.867, "source": "kmz"}}, {"type": "Feature", "geometry": {"type": "Point", "coordinates": [19.58092694513844, 51.88707944443657]}, "properties": {"bus": 905, "subst_id": 52, "station": "94 KAT Near SOSNOWIEC & Czelad", "matched_name": "Sosnowiec", "match_score": 0.5, "source": "kmz"}}, {"type": "Feature", "geometry": {"type": "Point", "coordinates": [19.58092694513844, 51.88707944443657]}, "properties": {"bus": 906, "subst_id": 52, "station": "94 KAT Near SOSNOWIEC & Czelad", "matched_name": "Sosnowiec", "match_score": 0.5, "source": "kmz"}}, {"type": "Feature", "geometry": {"type": "Point", "coordinates": [18.80873, 50.29432]}, "properties": {"bus": 919, "subst_id": 48, "station": "84 HAL Near Gliwice, Fortum Silesia SA", "matched_name": "84 HAL Near ", "match_score": 1.0, "source": "epc"}}, {"type": "Feature", "geometry": {"type": "Point", "coordinates": [18.80873, 50.29432]}, "properties": {"bus": 920, "subst_id": 48, "station": "84 HAL Near Gliwice, Fortum Silesia SA", "matched_name": "84 HAL Near ", "match_score": 1.0, "source": "epc"}}, {"type": "Feature", "geometry": {"type": "Point", "coordinates": [18.80873, 50.29432]}, "properties": {"bus": 921, "subst_id": 48, "station": "84 HAL Near Gliwice, Fortum Silesia SA", "matched_name": "84 HAL Near ", "match_score": 1.0, "source": "epc"}}, {"type": "Feature", "geometry": {"type": "Point", "coordinates": [18.80873, 50.29432]}, "properties": {"bus": 922, "subst_id": 48, "station": "84 HAL Near Gliwice, Fortum Silesia SA", "matched_name": "84 HAL Near ", "match_score": 1.0, "source": "epc"}}, {"type": "Feature", "geometry": {"type": "Point", "coordinates": [21.97455046495733, 51.13677270496459]}, "properties": {"bus": 998, "subst_id": 46, "station": "Opole DBN", "matched_name": "Opole Lubelskie", "match_score": 0.5, "source": "kmz"}}, {"type": "Feature", "geometry": {"type": "Point", "coordinates": [21.97455046495733, 51.13677270496459]}, "properties": {"bus": 999, "subst_id": 46, "station": "Opole DBN", "matched_name": "Opole Lubelskie", "match_score": 0.5, "source": "kmz"}}, {"type": "Feature", "geometry": {"type": "Point", "coordinates": [19.58092694513844, 51.88707944443657]}, "properties": {"bus": 1031, "subst_id": 52, "station": "94 KAT Near SOSNOWIEC & Czelad", "matched_name": "Sosnowiec", "match_score": 0.5, "source": "kmz"}}, {"type": "Feature", "geometry": {"type": "Point", "coordinates": [17.99864, 50.62792]}, "properties": {"bus": 1050, "subst_id": 47, "station": "83 GRO Near Opole & Proszkow", "matched_name": "83 GRO Near ", "match_score": 1.0, "source": "epc"}}, {"type": "Feature", "geometry": {"type": "Point", "coordinates": [17.99864, 50.62792]}, "properties": {"bus": 1051, "subst_id": 47, "station": "83 GRO Near Opole & Proszkow", "matched_name": "83 GRO Near ", "match_score": 1.0, "source": "epc"}}, {"type": "Feature", "geometry": {"type": "Point", "coordinates": [18.84308, 50.35163]}, "properties": {"bus": 1078, "subst_id": 63, "station": "115 ROK at Fortum Bytom Power Station & bottom of Tarnowskie Gory", "matched_name": "115 ROK at F", "match_score": 1.0, "source": "epc"}}, {"type": "Feature", "geometry": {"type": "Point", "coordinates": [18.84308, 50.35163]}, "properties": {"bus": 1079, "subst_id": 63, "station": "115 ROK at Fortum Bytom Power Station & bottom of Tarnowskie Gory", "matched_name": "115 ROK at F", "match_score": 1.0, "source": "epc"}}, {"type": "Feature", "geometry": {"type": "Point", "coordinates": [18.84308, 50.35163]}, "properties": {"bus": 1080, "subst_id": 63, "station": "115 ROK at Fortum Bytom Power Station & bottom of Tarnowskie Gory", "matched_name": "115 ROK at F", "match_score": 1.0, "source": "epc"}}, {"type": "Feature", "geometry": {"type": "Point", "coordinates": [18.84308, 50.35163]}, "properties": {"bus": 1081, "subst_id": 63, "station": "115 ROK at Fortum Bytom Power Station & bottom of Tarnowskie Gory", "matched_name": "115 ROK at F", "match_score": 1.0, "source": "epc"}}, {"type": "Feature", "geometry": {"type": "Point", "coordinates": [17.99864, 50.62792]}, "properties": {"bus": 1088, "subst_id": 47, "station": "83 GRO Near Opole & Proszkow", "matched_name": "83 GRO Near ", "match_score": 1.0, "source": "epc"}}, {"type": "Feature", "geometry": {"type": "Point", "coordinates": [17.99864, 50.62792]}, "properties": {"bus": 1089, "subst_id": 47, "station": "83 GRO Near Opole & Proszkow", "matched_name": "83 GRO Near ", "match_score": 1.0, "source": "epc"}}, {"type": "Feature", "geometry": {"type": "Point", "coordinates": [18.80873, 50.29432]}, "properties": {"bus": 1110, "subst_id": 48, "station": "84 HAL Near Gliwice, Fortum Silesia SA", "matched_name": "84 HAL Near ", "match_score": 1.0, "source": "epc"}}, {"type": "Feature", "geometry": {"type": "Point", "coordinates": [18.80873, 50.29432]}, "properties": {"bus": 1111, "subst_id": 48, "station": "84 HAL Near Gliwice, Fortum Silesia SA", "matched_name": "84 HAL Near ", "match_score": 1.0, "source": "epc"}}, {"type": "Feature", "geometry": {"type": "Point", "coordinates": [18.80873, 50.29432]}, "properties": {"bus": 1112, "subst_id": 48, "station": "84 HAL Near Gliwice, Fortum Silesia SA", "matched_name": "84 HAL Near ", "match_score": 1.0, "source": "epc"}}, {"type": "Feature", "geometry": {"type": "Point", "coordinates": [18.8404, 50.13238]}, "properties": {"bus": 1136, "subst_id": 57, "station": "laziska KOP Near Tychy", "matched_name": "laziska KOP ", "match_score": 1.0, "source": "epc"}}, {"type": "Feature", "geometry": {"type": "Point", "coordinates": [18.8404, 50.13238]}, "properties": {"bus": 1137, "subst_id": 57, "station": "laziska KOP Near Tychy", "matched_name": "laziska KOP ", "match_score": 1.0, "source": "epc"}}, {"type": "Feature", "geometry": {"type": "Point", "coordinates": [18.8404, 50.13238]}, "properties": {"bus": 1138, "subst_id": 57, "station": "laziska KOP Near Tychy", "matched_name": "laziska KOP ", "match_score": 1.0, "source": "epc"}}, {"type": "Feature", "geometry": {"type": "Point", "coordinates": [18.8404, 50.13238]}, "properties": {"bus": 1139, "subst_id": 57, "station": "laziska KOP Near Tychy", "matched_name": "laziska KOP ", "match_score": 1.0, "source": "epc"}}, {"type": "Feature", "geometry": {"type": "Point", "coordinates": [18.8404, 50.13238]}, "properties": {"bus": 1140, "subst_id": 57, "station": "laziska KOP Near Tychy", "matched_name": "laziska KOP ", "match_score": 1.0, "source": "epc"}}, {"type": "Feature", "geometry": {"type": "Point", "coordinates": [18.8404, 50.13238]}, "properties": {"bus": 1141, "subst_id": 57, "station": "laziska KOP Near Tychy", "matched_name": "laziska KOP ", "match_score": 1.0, "source": "epc"}}, {"type": "Feature", "geometry": {"type": "Point", "coordinates": [20.00589, 50.05279]}, "properties": {"bus": 1158, "subst_id": 60, "station": "110 LUA NearMeichow, Krakow", "matched_name": "110 LUA Near", "match_score": 1.0, "source": "epc"}}, {"type": "Feature", "geometry": {"type": "Point", "coordinates": [20.00589, 50.05279]}, "properties": {"bus": 1159, "subst_id": 60, "station": "110 LUA NearMeichow, Krakow", "matched_name": "110 LUA Near", "match_score": 1.0, "source": "epc"}}, {"type": "Feature", "geometry": {"type": "Point", "coordinates": [20.00589, 50.05279]}, "properties": {"bus": 1160, "subst_id": 60, "station": "110 LUA NearMeichow, Krakow", "matched_name": "110 LUA Near", "match_score": 1.0, "source": "epc"}}, {"type": "Feature", "geometry": {"type": "Point", "coordinates": [20.08657969783423, 49.98735166122513]}, "properties": {"bus": 1161, "subst_id": 68, "station": "124 WAN Near Krakow, Wieliczka", "matched_name": "Wieliczka", "match_score": 0.5, "source": "kmz"}}, {"type": "Feature", "geometry": {"type": "Point", "coordinates": [20.08657969783423, 49.98735166122513]}, "properties": {"bus": 1162, "subst_id": 68, "station": "124 WAN Near Krakow, Wieliczka", "matched_name": "Wieliczka", "match_score": 0.5, "source": "kmz"}}, {"type": "Feature", "geometry": {"type": "Point", "coordinates": [19.17749, 50.34431]}, "properties": {"bus": 1186, "subst_id": 50, "station": "88 JAM From LAG & Near Sosnowiece", "matched_name": "88 JAM From ", "match_score": 1.0, "source": "epc"}}, {"type": "Feature", "geometry": {"type": "Point", "coordinates": [19.17749, 50.34431]}, "properties": {"bus": 1187, "subst_id": 50, "station": "88 JAM From LAG & Near Sosnowiece", "matched_name": "88 JAM From ", "match_score": 1.0, "source": "epc"}}, {"type": "Feature", "geometry": {"type": "Point", "coordinates": [19.58092694513844, 51.88707944443657]}, "properties": {"bus": 1231, "subst_id": 52, "station": "94 KAT Near SOSNOWIEC & Czelad", "matched_name": "Sosnowiec", "match_score": 0.5, "source": "kmz"}}, {"type": "Feature", "geometry": {"type": "Point", "coordinates": [19.58092694513844, 51.88707944443657]}, "properties": {"bus": 1232, "subst_id": 52, "station": "94 KAT Near SOSNOWIEC & Czelad", "matched_name": "Sosnowiec", "match_score": 0.5, "source": "kmz"}}, {"type": "Feature", "geometry": {"type": "Point", "coordinates": [18.28847, 50.28674]}, "properties": {"bus": 1245, "subst_id": 53, "station": "96 KED Below BLA(74)", "matched_name": "96 KED Below", "match_score": 1.0, "source": "epc"}}, {"type": "Feature", "geometry": {"type": "Point", "coordinates": [18.28847, 50.28674]}, "properties": {"bus": 1246, "subst_id": 53, "station": "96 KED Below BLA(74)", "matched_name": "96 KED Below", "match_score": 1.0, "source": "epc"}}, {"type": "Feature", "geometry": {"type": "Point", "coordinates": [18.80873, 50.29432]}, "properties": {"bus": 1249, "subst_id": 48, "station": "84 HAL Near Gliwice, Fortum Silesia SA", "matched_name": "84 HAL Near ", "match_score": 1.0, "source": "epc"}}, {"type": "Feature", "geometry": {"type": "Point", "coordinates": [18.80873, 50.29432]}, "properties": {"bus": 1251, "subst_id": 48, "station": "84 HAL Near Gliwice, Fortum Silesia SA", "matched_name": "84 HAL Near ", "match_score": 1.0, "source": "epc"}}, {"type": "Feature", "geometry": {"type": "Point", "coordinates": [20.91387, 50.04182]}, "properties": {"bus": 1253, "subst_id": 55, "station": "100 KLA Near Tarnow, Zabno", "matched_name": "100 KLA Near", "match_score": 1.0, "source": "epc"}}, {"type": "Feature", "geometry": {"type": "Point", "coordinates": [20.91387, 50.04182]}, "properties": {"bus": 1254, "subst_id": 55, "station": "100 KLA Near Tarnow, Zabno", "matched_name": "100 KLA Near", "match_score": 1.0, "source": "epc"}}, {"type": "Feature", "geometry": {"type": "Point", "coordinates": [18.92115, 49.87362]}, "properties": {"bus": 1284, "subst_id": 56, "station": "102 KOM Near CZECHWICE-DZIEDZICE and above Jaworze", "matched_name": "102 KOM Near", "match_score": 1.0, "source": "epc"}}, {"type": "Feature", "geometry": {"type": "Point", "coordinates": [18.92115, 49.87362]}, "properties": {"bus": 1285, "subst_id": 56, "station": "102 KOM Near CZECHWICE-DZIEDZICE and above Jaworze", "matched_name": "102 KOM Near", "match_score": 1.0, "source": "epc"}}, {"type": "Feature", "geometry": {"type": "Point", "coordinates": [18.8404, 50.13238]}, "properties": {"bus": 1286, "subst_id": 57, "station": "laziska KOP Near Tychy", "matched_name": "laziska KOP ", "match_score": 1.0, "source": "epc"}}, {"type": "Feature", "geometry": {"type": "Point", "coordinates": [18.8404, 50.13238]}, "properties": {"bus": 1287, "subst_id": 57, "station": "laziska KOP Near Tychy", "matched_name": "laziska KOP ", "match_score": 1.0, "source": "epc"}}, {"type": "Feature", "geometry": {"type": "Point", "coordinates": [19.14104, 50.34967]}, "properties": {"bus": 1350, "subst_id": 58, "station": "lagisza LAG, PKE SA Power Plant", "matched_name": "lagisza LAG,", "match_score": 1.0, "source": "epc"}}, {"type": "Feature", "geometry": {"type": "Point", "coordinates": [19.14104, 50.34967]}, "properties": {"bus": 1351, "subst_id": 58, "station": "lagisza LAG, PKE SA Power Plant", "matched_name": "lagisza LAG,", "match_score": 1.0, "source": "epc"}}, {"type": "Feature", "geometry": {"type": "Point", "coordinates": [19.14104, 50.34967]}, "properties": {"bus": 1352, "subst_id": 58, "station": "lagisza LAG, PKE SA Power Plant", "matched_name": "lagisza LAG,", "match_score": 1.0, "source": "epc"}}, {"type": "Feature", "geometry": {"type": "Point", "coordinates": [18.8404, 50.13238]}, "properties": {"bus": 1361, "subst_id": 57, "station": "laziska KOP Near Tychy", "matched_name": "laziska KOP ", "match_score": 1.0, "source": "epc"}}, {"type": "Feature", "geometry": {"type": "Point", "coordinates": [18.8404, 50.13238]}, "properties": {"bus": 1362, "subst_id": 57, "station": "laziska KOP Near Tychy", "matched_name": "laziska KOP ", "match_score": 1.0, "source": "epc"}}, {"type": "Feature", "geometry": {"type": "Point", "coordinates": [20.99551632235926, 52.29352312537825]}, "properties": {"bus": 1373, "subst_id": 868, "station": "EC Zeran", "matched_name": "EC \u017bera\u0144", "match_score": 1.0, "source": "kmz"}}, {"type": "Feature", "geometry": {"type": "Point", "coordinates": [20.99551632235926, 52.29352312537825]}, "properties": {"bus": 1374, "subst_id": 868, "station": "EC Zeran", "matched_name": "EC \u017bera\u0144", "match_score": 1.0, "source": "kmz"}}, {"type": "Feature", "geometry": {"type": "Point", "coordinates": [20.99551632235926, 52.29352312537825]}, "properties": {"bus": 1375, "subst_id": 868, "station": "EC Zeran", "matched_name": "EC \u017bera\u0144", "match_score": 1.0, "source": "kmz"}}, {"type": "Feature", "geometry": {"type": "Point", "coordinates": [19.53524, 50.47932]}, "properties": {"bus": 1386, "subst_id": 59, "station": "108 LOS Near Zawiercie & Pilica", "matched_name": "108 LOS Near", "match_score": 1.0, "source": "epc"}}, {"type": "Feature", "geometry": {"type": "Point", "coordinates": [19.53524, 50.47932]}, "properties": {"bus": 1387, "subst_id": 59, "station": "108 LOS Near Zawiercie & Pilica", "matched_name": "108 LOS Near", "match_score": 1.0, "source": "epc"}}, {"type": "Feature", "geometry": {"type": "Point", "coordinates": [20.00589, 50.05279]}, "properties": {"bus": 1392, "subst_id": 60, "station": "110 LUA NearMeichow, Krakow", "matched_name": "110 LUA Near", "match_score": 1.0, "source": "epc"}}, {"type": "Feature", "geometry": {"type": "Point", "coordinates": [20.00589, 50.05279]}, "properties": {"bus": 1393, "subst_id": 60, "station": "110 LUA NearMeichow, Krakow", "matched_name": "110 LUA Near", "match_score": 1.0, "source": "epc"}}, {"type": "Feature", "geometry": {"type": "Point", "coordinates": [18.56448, 49.9534]}, "properties": {"bus": 1433, "subst_id": 61, "station": "111 MOS at EC Moszczenica Near Orlova", "matched_name": "111 MOS at E", "match_score": 1.0, "source": "epc"}}, {"type": "Feature", "geometry": {"type": "Point", "coordinates": [18.56448, 49.9534]}, "properties": {"bus": 1434, "subst_id": 61, "station": "111 MOS at EC Moszczenica Near Orlova", "matched_name": "111 MOS at E", "match_score": 1.0, "source": "epc"}}, {"type": "Feature", "geometry": {"type": "Point", "coordinates": [20.31758564193406, 49.41482150296264]}, "properties": {"bus": 1462, "subst_id": 911, "station": "Niedzica", "matched_name": "Niedzica", "match_score": 1.0, "source": "kmz"}}, {"type": "Feature", "geometry": {"type": "Point", "coordinates": [20.31758564193406, 49.41482150296264]}, "properties": {"bus": 1463, "subst_id": 911, "station": "Niedzica", "matched_name": "Niedzica", "match_score": 1.0, "source": "kmz"}}, {"type": "Feature", "geometry": {"type": "Point", "coordinates": [19.17749, 50.34431]}, "properties": {"bus": 1550, "subst_id": 50, "station": "88 JAM From LAG & Near Sosnowiece", "matched_name": "88 JAM From ", "match_score": 1.0, "source": "epc"}}, {"type": "Feature", "geometry": {"type": "Point", "coordinates": [19.17749, 50.34431]}, "properties": {"bus": 1551, "subst_id": 50, "station": "88 JAM From LAG & Near Sosnowiece", "matched_name": "88 JAM From ", "match_score": 1.0, "source": "epc"}}, {"type": "Feature", "geometry": {"type": "Point", "coordinates": [19.27891, 49.99234]}, "properties": {"bus": 1572, "subst_id": 62, "station": "113 PRB Near Oswiecim, Osiek & above Kety", "matched_name": "113 PRB Near", "match_score": 1.0, "source": "epc"}}, {"type": "Feature", "geometry": {"type": "Point", "coordinates": [19.27891, 49.99234]}, "properties": {"bus": 1573, "subst_id": 62, "station": "113 PRB Near Oswiecim, Osiek & above Kety", "matched_name": "113 PRB Near", "match_score": 1.0, "source": "epc"}}, {"type": "Feature", "geometry": {"type": "Point", "coordinates": [18.84308, 50.35163]}, "properties": {"bus": 1632, "subst_id": 63, "station": "115 ROK at Fortum Bytom Power Station & bottom of Tarnowskie Gory", "matched_name": "115 ROK at F", "match_score": 1.0, "source": "epc"}}, {"type": "Feature", "geometry": {"type": "Point", "coordinates": [18.84308, 50.35163]}, "properties": {"bus": 1633, "subst_id": 63, "station": "115 ROK at Fortum Bytom Power Station & bottom of Tarnowskie Gory", "matched_name": "115 ROK at F", "match_score": 1.0, "source": "epc"}}, {"type": "Feature", "geometry": {"type": "Point", "coordinates": [18.84308, 50.35163]}, "properties": {"bus": 1634, "subst_id": 63, "station": "115 ROK at Fortum Bytom Power Station & bottom of Tarnowskie Gory", "matched_name": "115 ROK at F", "match_score": 1.0, "source": "epc"}}, {"type": "Feature", "geometry": {"type": "Point", "coordinates": [18.8404, 50.13238]}, "properties": {"bus": 1649, "subst_id": 57, "station": "laziska KOP Near Tychy", "matched_name": "laziska KOP ", "match_score": 1.0, "source": "epc"}}, {"type": "Feature", "geometry": {"type": "Point", "coordinates": [18.8404, 50.13238]}, "properties": {"bus": 1650, "subst_id": 57, "station": "laziska KOP Near Tychy", "matched_name": "laziska KOP ", "match_score": 1.0, "source": "epc"}}, {"type": "Feature", "geometry": {"type": "Point", "coordinates": [18.8404, 50.13238]}, "properties": {"bus": 1651, "subst_id": 57, "station": "laziska KOP Near Tychy", "matched_name": "laziska KOP ", "match_score": 1.0, "source": "epc"}}, {"type": "Feature", "geometry": {"type": "Point", "coordinates": [19.46485915562955, 50.20964608257614]}, "properties": {"bus": 1675, "subst_id": 64, "station": "Siersza SIE 72", "matched_name": "Siersza [SIE]", "match_score": 1.0, "source": "kmz"}}, {"type": "Feature", "geometry": {"type": "Point", "coordinates": [19.46485915562955, 50.20964608257614]}, "properties": {"bus": 1676, "subst_id": 64, "station": "Siersza SIE 72", "matched_name": "Siersza [SIE]", "match_score": 1.0, "source": "kmz"}}, {"type": "Feature", "geometry": {"type": "Point", "coordinates": [19.46485915562955, 50.20964608257614]}, "properties": {"bus": 1677, "subst_id": 64, "station": "Siersza SIE 72", "matched_name": "Siersza [SIE]", "match_score": 1.0, "source": "kmz"}}, {"type": "Feature", "geometry": {"type": "Point", "coordinates": [19.79242172398856, 49.96663261522167]}, "properties": {"bus": 1687, "subst_id": 65, "station": "Skawina SKA", "matched_name": "Huta Skawina", "match_score": 0.5, "source": "kmz"}}, {"type": "Feature", "geometry": {"type": "Point", "coordinates": [19.79242172398856, 49.96663261522167]}, "properties": {"bus": 1688, "subst_id": 65, "station": "Skawina SKA", "matched_name": "Huta Skawina", "match_score": 0.5, "source": "kmz"}}, {"type": "Feature", "geometry": {"type": "Point", "coordinates": [19.79242172398856, 49.96663261522167]}, "properties": {"bus": 1693, "subst_id": 65, "station": "Skawina SKA", "matched_name": "Huta Skawina", "match_score": 0.5, "source": "kmz"}}, {"type": "Feature", "geometry": {"type": "Point", "coordinates": [19.79242172398856, 49.96663261522167]}, "properties": {"bus": 1694, "subst_id": 65, "station": "Skawina SKA", "matched_name": "Huta Skawina", "match_score": 0.5, "source": "kmz"}}, {"type": "Feature", "geometry": {"type": "Point", "coordinates": [20.958891, 49.991759]}, "properties": {"bus": 1795, "subst_id": 66, "station": "120 TAW Near Tarnow, Pilzno", "matched_name": "120 TAW Near", "match_score": 1.0, "source": "epc"}}, {"type": "Feature", "geometry": {"type": "Point", "coordinates": [20.958891, 49.991759]}, "properties": {"bus": 1796, "subst_id": 66, "station": "120 TAW Near Tarnow, Pilzno", "matched_name": "120 TAW Near", "match_score": 1.0, "source": "epc"}}, {"type": "Feature", "geometry": {"type": "Point", "coordinates": [18.65272667464937, 50.22791400131657]}, "properties": {"bus": 1797, "subst_id": 67, "station": "122 TCN Near Dabrowa Gornicza", "matched_name": "G\u00f3rnicza", "match_score": 0.5, "source": "kmz"}}, {"type": "Feature", "geometry": {"type": "Point", "coordinates": [18.65272667464937, 50.22791400131657]}, "properties": {"bus": 1798, "subst_id": 67, "station": "122 TCN Near Dabrowa Gornicza", "matched_name": "G\u00f3rnicza", "match_score": 0.5, "source": "kmz"}}, {"type": "Feature", "geometry": {"type": "Point", "coordinates": [20.08657969783423, 49.98735166122513]}, "properties": {"bus": 1822, "subst_id": 68, "station": "124 WAN Near Krakow, Wieliczka", "matched_name": "Wieliczka", "match_score": 0.5, "source": "kmz"}}, {"type": "Feature", "geometry": {"type": "Point", "coordinates": [20.08657969783423, 49.98735166122513]}, "properties": {"bus": 1823, "subst_id": 68, "station": "124 WAN Near Krakow, Wieliczka", "matched_name": "Wieliczka", "match_score": 0.5, "source": "kmz"}}, {"type": "Feature", "geometry": {"type": "Point", "coordinates": [18.52330972212118, 50.13307222357545]}, "properties": {"bus": 1841, "subst_id": 69, "station": "Rybnik WIE", "matched_name": "El. Rybnik", "match_score": 0.5, "source": "kmz"}}, {"type": "Feature", "geometry": {"type": "Point", "coordinates": [18.52330972212118, 50.13307222357545]}, "properties": {"bus": 1842, "subst_id": 69, "station": "Rybnik WIE", "matched_name": "El. Rybnik", "match_score": 0.5, "source": "kmz"}}, {"type": "Feature", "geometry": {"type": "Point", "coordinates": [18.52330972212118, 50.13307222357545]}, "properties": {"bus": 1843, "subst_id": 69, "station": "Rybnik WIE", "matched_name": "El. Rybnik", "match_score": 0.5, "source": "kmz"}}, {"type": "Feature", "geometry": {"type": "Point", "coordinates": [19.08262, 50.776676]}, "properties": {"bus": 1863, "subst_id": 70, "station": "129, between WRZ(113) and HCZ(86)", "matched_name": "129, between", "match_score": 1.0, "source": "epc"}}, {"type": "Feature", "geometry": {"type": "Point", "coordinates": [19.08262, 50.776676]}, "properties": {"bus": 1864, "subst_id": 70, "station": "129, between WRZ(113) and HCZ(86)", "matched_name": "129, between", "match_score": 1.0, "source": "epc"}}, {"type": "Feature", "geometry": {"type": "Point", "coordinates": [19.53524, 50.47932]}, "properties": {"bus": 1901, "subst_id": 59, "station": "108 LOS Near Zawiercie & Pilica", "matched_name": "108 LOS Near", "match_score": 1.0, "source": "epc"}}, {"type": "Feature", "geometry": {"type": "Point", "coordinates": [19.53524, 50.47932]}, "properties": {"bus": 1902, "subst_id": 59, "station": "108 LOS Near Zawiercie & Pilica", "matched_name": "108 LOS Near", "match_score": 1.0, "source": "epc"}}, {"type": "Feature", "geometry": {"type": "Point", "coordinates": [19.53524, 50.47932]}, "properties": {"bus": 1918, "subst_id": 59, "station": "108 LOS Near Zawiercie & Pilica", "matched_name": "108 LOS Near", "match_score": 1.0, "source": "epc"}}, {"type": "Feature", "geometry": {"type": "Point", "coordinates": [19.53524, 50.47932]}, "properties": {"bus": 1919, "subst_id": 59, "station": "108 LOS Near Zawiercie & Pilica", "matched_name": "108 LOS Near", "match_score": 1.0, "source": "epc"}}, {"type": "Feature", "geometry": {"type": "Point", "coordinates": [18.61017242290727, 52.02576198243848]}, "properties": {"bus": 1932, "subst_id": 74, "station": "Adamow", "matched_name": "Adam\u00f3w KWB", "match_score": 1.0, "source": "kmz"}}, {"type": "Feature", "geometry": {"type": "Point", "coordinates": [18.61017242290727, 52.02576198243848]}, "properties": {"bus": 1933, "subst_id": 74, "station": "Adamow", "matched_name": "Adam\u00f3w KWB", "match_score": 1.0, "source": "kmz"}}, {"type": "Feature", "geometry": {"type": "Point", "coordinates": [18.61017242290727, 52.02576198243848]}, "properties": {"bus": 1934, "subst_id": 74, "station": "Adamow", "matched_name": "Adam\u00f3w KWB", "match_score": 1.0, "source": "kmz"}}, {"type": "Feature", "geometry": {"type": "Point", "coordinates": [16.238229, 50.759506]}, "properties": {"bus": 1955, "subst_id": 75, "station": "136 BOG Near Boguszow-Gorce", "matched_name": "136 BOG Near", "match_score": 1.0, "source": "epc"}}, {"type": "Feature", "geometry": {"type": "Point", "coordinates": [16.238229, 50.759506]}, "properties": {"bus": 1956, "subst_id": 75, "station": "136 BOG Near Boguszow-Gorce", "matched_name": "136 BOG Near", "match_score": 1.0, "source": "epc"}}, {"type": "Feature", "geometry": {"type": "Point", "coordinates": [14.46357251600939, 53.20452682793295]}, "properties": {"bus": 1964, "subst_id": 1145, "station": "1964 KRA Dolna Odra", "matched_name": "El. Dolna Odra", "match_score": 0.87, "source": "kmz"}}, {"type": "Feature", "geometry": {"type": "Point", "coordinates": [22.558387, 51.216454]}, "properties": {"bus": 1978, "subst_id": 1157, "station": "Lublin-Wrotkow Power Station", "matched_name": "Lublin-Wrotk", "match_score": 1.0, "source": "epc"}}, {"type": "Feature", "geometry": {"type": "Point", "coordinates": [15.65381, 50.889672]}, "properties": {"bus": 1979, "subst_id": 76, "station": "137 CPC Near Swieradow-Zdroj", "matched_name": "137 CPC Near", "match_score": 1.0, "source": "epc"}}, {"type": "Feature", "geometry": {"type": "Point", "coordinates": [15.65381, 50.889672]}, "properties": {"bus": 1980, "subst_id": 76, "station": "137 CPC Near Swieradow-Zdroj", "matched_name": "137 CPC Near", "match_score": 1.0, "source": "epc"}}, {"type": "Feature", "geometry": {"type": "Point", "coordinates": [16.297783, 51.380927]}, "properties": {"bus": 1981, "subst_id": 77, "station": "138 CRN", "matched_name": "138 CRN", "match_score": 1.0, "source": "epc"}}, {"type": "Feature", "geometry": {"type": "Point", "coordinates": [16.297783, 51.380927]}, "properties": {"bus": 1982, "subst_id": 77, "station": "138 CRN", "matched_name": "138 CRN", "match_score": 1.0, "source": "epc"}}, {"type": "Feature", "geometry": {"type": "Point", "coordinates": [17.496833, 52.466885]}, "properties": {"bus": 1987, "subst_id": 78, "station": "140 CZE Czerniejewo", "matched_name": "140 CZE Czer", "match_score": 1.0, "source": "epc"}}, {"type": "Feature", "geometry": {"type": "Point", "coordinates": [17.496833, 52.466885]}, "properties": {"bus": 1988, "subst_id": 78, "station": "140 CZE Czerniejewo", "matched_name": "140 CZE Czer", "match_score": 1.0, "source": "epc"}}, {"type": "Feature", "geometry": {"type": "Point", "coordinates": [14.46357251600939, 53.20452682793295]}, "properties": {"bus": 1996, "subst_id": 1145, "station": "1964 KRA Dolna Odra", "matched_name": "El. Dolna Odra", "match_score": 0.87, "source": "kmz"}}, {"type": "Feature", "geometry": {"type": "Point", "coordinates": [14.46357251600939, 53.20452682793295]}, "properties": {"bus": 1997, "subst_id": 1145, "station": "1964 KRA Dolna Odra", "matched_name": "El. Dolna Odra", "match_score": 0.87, "source": "kmz"}}, {"type": "Feature", "geometry": {"type": "Point", "coordinates": [15.05280719119367, 51.98949396550929]}, "properties": {"bus": 2002, "subst_id": 1172, "station": "Dychow", "matched_name": "Dych\u00f3w EW", "match_score": 1.0, "source": "kmz"}}, {"type": "Feature", "geometry": {"type": "Point", "coordinates": [15.05280719119367, 51.98949396550929]}, "properties": {"bus": 2003, "subst_id": 1172, "station": "Dychow", "matched_name": "Dych\u00f3w EW", "match_score": 1.0, "source": "kmz"}}, {"type": "Feature", "geometry": {"type": "Point", "coordinates": [22.558387, 51.216454]}, "properties": {"bus": 2006, "subst_id": 1157, "station": "Lublin-Wrotkow Power Station", "matched_name": "Lublin-Wrotk", "match_score": 1.0, "source": "epc"}}, {"type": "Feature", "geometry": {"type": "Point", "coordinates": [22.558387, 51.216454]}, "properties": {"bus": 2007, "subst_id": 1157, "station": "Lublin-Wrotkow Power Station", "matched_name": "Lublin-Wrotk", "match_score": 1.0, "source": "epc"}}, {"type": "Feature", "geometry": {"type": "Point", "coordinates": [21.0812297734335, 52.22701799190168]}, "properties": {"bus": 2013, "subst_id": 79, "station": "141 GLN Gol?cino-Goc?aw", "matched_name": "Goc\u0142aw", "match_score": 0.5, "source": "kmz"}}, {"type": "Feature", "geometry": {"type": "Point", "coordinates": [21.0812297734335, 52.22701799190168]}, "properties": {"bus": 2014, "subst_id": 79, "station": "141 GLN Gol?cino-Goc?aw", "matched_name": "Goc\u0142aw", "match_score": 0.5, "source": "kmz"}}, {"type": "Feature", "geometry": {"type": "Point", "coordinates": [15.26949432804577, 52.74904853311882]}, "properties": {"bus": 2019, "subst_id": 80, "station": "143 GOR Gorz\u00f3w Wielkopolski", "matched_name": "EC Gorz\u00f3w", "match_score": 0.5, "source": "kmz"}}, {"type": "Feature", "geometry": {"type": "Point", "coordinates": [15.26949432804577, 52.74904853311882]}, "properties": {"bus": 2020, "subst_id": 80, "station": "143 GOR Gorz\u00f3w Wielkopolski", "matched_name": "EC Gorz\u00f3w", "match_score": 0.5, "source": "kmz"}},