{"type": "FeatureCollection", "name": "case2746wop_TAMU_Updated", "crs": {"type": "name", "properties": {"name": "EPSG:4326"}}, "features": [{"type": "Feature", "geometry": {"type": "Point", "coordinates": [19.1778, 51.21298]}, "properties": {"bus": 1, "subst_id": 1, "station": "1 BEK Near P"}}, {"type": "Feature", "geometry": {"type": "Point", "coordinates": [19.1778, 51.21298]}, "properties": {"bus": 2, "subst_id": 1, "station": "1 BEK Near P"}}, {"type": "Feature", "geometry": {"type": "Point", "coordinates": [22.360136, 53.833765]}, "properties": {"bus": 3, "subst_id": 2, "station": "3 ELK Elk"}}, {"type": "Feature", "geometry": {"type": "Point", "coordinates": [19.567643, 51.76127]}, "properties": {"bus": 4, "subst_id": 3, "station": "4 JAN Sub"}}, {"type": "Feature", "geometry": {"type": "Point", "coordinates": [19.567643, 51.76127]}, "properties": {"bus": 5, "subst_id": 3, "station": "4 JAN Sub"}}, {"type": "Feature", "geometry": {"type": "Point", "coordinates": [21.270414, 52.25798]}, "properties": {"bus": 6, "subst_id": 4, "station": "6 MIL"}}, {"type": "Feature", "geometry": {"type": "Point", "coordinates": [21.270414, 52.25798]}, "properties": {"bus": 7, "subst_id": 4, "station": "6 MIL"}}, {"type": "Feature", "geometry": {"type": "Point", "coordinates": [21.270414, 52.25798]}, "properties": {"bus": 8, "subst_id": 4, "station": "6 MIL"}}, {"type": "Feature", "geometry": {"type": "Point", "coordinates": [21.270414, 52.25798]}, "properties": {"bus": 9, "subst_id": 4, "station": "6 MIL"}}, {"type": "Feature", "geometry": {"type": "Point", "coordinates": [21.042793, 52.215282]}, "properties": {"bus": 10, "subst_id": 5, "station": "10 MOR"}}, {"type": "Feature", "geometry": {"type": "Point", "coordinates": [21.042793, 52.215282]}, "properties": {"bus": 11, "subst_id": 5, "station": "10 MOR"}}, {"type": "Feature", "geometry": {"type": "Point", "coordinates": [21.042793, 52.215282]}, "properties": {"bus": 12, "subst_id": 5, "station": "10 MOR"}}, {"type": "Feature", "geometry": {"type": "Point", "coordinates": [20.869541, 52.28928]}, "properties": {"bus": 13, "subst_id": 6, "station": "13 MSK"}}, {"type": "Feature", "geometry": {"type": "Point", "coordinates": [20.869541, 52.28928]}, "properties": {"bus": 14, "subst_id": 6, "station": "13 MSK"}}, {"type": "Feature", "geometry": {"type": "Point", "coordinates": [23.761886, 52.834167]}, "properties": {"bus": 15, "subst_id": 7, "station": "15 NAR Narew"}}, {"type": "Feature", "geometry": {"type": "Point", "coordinates": [23.761886, 52.834167]}, "properties": {"bus": 16, "subst_id": 7, "station": "15 NAR Narew"}}, {"type": "Feature", "geometry": {"type": "Point", "coordinates": [21.538187, 53.15154]}, "properties": {"bus": 17, "subst_id": 8, "station": "Ostroleka"}}, {"type": "Feature", "geometry": {"type": "Point", "coordinates": [21.538187, 53.15154]}, "properties": {"bus": 18, "subst_id": 8, "station": "Ostroleka"}}, {"type": "Feature", "geometry": {"type": "Point", "coordinates": [19.419561, 51.688017]}, "properties": {"bus": 19, "subst_id": 9, "station": "19 PAB Near "}}, {"type": "Feature", "geometry": {"type": "Point", "coordinates": [19.419561, 51.688017]}, "properties": {"bus": 20, "subst_id": 9, "station": "19 PAB Near "}}, {"type": "Feature", "geometry": {"type": "Point", "coordinates": [19.680669, 52.600717]}, "properties": {"bus": 21, "subst_id": 10, "station": "21 PDE Plock"}}, {"type": "Feature", "geometry": {"type": "Point", "coordinates": [19.680669, 52.600717]}, "properties": {"bus": 22, "subst_id": 10, "station": "21 PDE Plock"}}, {"type": "Feature", "geometry": {"type": "Point", "coordinates": [21.02048, 52.12044]}, "properties": {"bus": 23, "subst_id": 11, "station": "23 PIA"}}, {"type": "Feature", "geometry": {"type": "Point", "coordinates": [19.645897, 51.432817]}, "properties": {"bus": 24, "subst_id": 12, "station": "24 PIO Near "}}, {"type": "Feature", "geometry": {"type": "Point", "coordinates": [20.41239, 52.741399]}, "properties": {"bus": 25, "subst_id": 13, "station": "25 PLO"}}, {"type": "Feature", "geometry": {"type": "Point", "coordinates": [19.31765, 51.26719]}, "properties": {"bus": 26, "subst_id": 14, "station": "Belchatow RO"}}, {"type": "Feature", "geometry": {"type": "Point", "coordinates": [19.31765, 51.26719]}, "properties": {"bus": 27, "subst_id": 14, "station": "Belchatow RO"}}, {"type": "Feature", "geometry": {"type": "Point", "coordinates": [19.31765, 51.26719]}, "properties": {"bus": 28, "subst_id": 14, "station": "Belchatow RO"}}, {"type": "Feature", "geometry": {"type": "Point", "coordinates": [19.31765, 51.26719]}, "properties": {"bus": 29, "subst_id": 14, "station": "Belchatow RO"}}, {"type": "Feature", "geometry": {"type": "Point", "coordinates": [20.230707, 52.271387]}, "properties": {"bus": 30, "subst_id": 15, "station": "30 SOC Socha"}}, {"type": "Feature", "geometry": {"type": "Point", "coordinates": [18.91469, 51.13949]}, "properties": {"bus": 31, "subst_id": 16, "station": "31 TRE near "}}, {"type": "Feature", "geometry": {"type": "Point", "coordinates": [21.111176, 52.300503]}, "properties": {"bus": 32, "subst_id": 17, "station": "32 WTO Zabki"}}, {"type": "Feature", "geometry": {"type": "Point", "coordinates": [19.645897, 51.432817]}, "properties": {"bus": 33, "subst_id": 12, "station": "24 PIO Near "}}, {"type": "Feature", "geometry": {"type": "Point", "coordinates": [19.372636, 51.918277]}, "properties": {"bus": 34, "subst_id": 18, "station": "34 ZGI Zgier"}}, {"type": "Feature", "geometry": {"type": "Point", "coordinates": [22.55763, 51.21738]}, "properties": {"bus": 35, "subst_id": 19, "station": "35 ABR Near "}}, {"type": "Feature", "geometry": {"type": "Point", "coordinates": [21.933098, 50.029741]}, "properties": {"bus": 36, "subst_id": 20, "station": "36 BGC Near "}}, {"type": "Feature", "geometry": {"type": "Point", "coordinates": [21.6759, 50.57171]}, "properties": {"bus": 37, "subst_id": 21, "station": "37 CHM Near "}}, {"type": "Feature", "geometry": {"type": "Point", "coordinates": [21.6759, 50.57171]}, "properties": {"bus": 38, "subst_id": 21, "station": "37 CHM Near "}}, {"type": "Feature", "geometry": {"type": "Point", "coordinates": [23.443027, 51.171112]}, "properties": {"bus": 39, "subst_id": 22, "station": "39 CHS Near "}}, {"type": "Feature", "geometry": {"type": "Point", "coordinates": [20.43056, 50.90179]}, "properties": {"bus": 40, "subst_id": 23, "station": "40 KIE Below"}}, {"type": "Feature", "geometry": {"type": "Point", "coordinates": [20.43056, 50.90179]}, "properties": {"bus": 41, "subst_id": 23, "station": "40 KIE Below"}}, {"type": "Feature", "geometry": {"type": "Point", "coordinates": [20.43056, 50.90179]}, "properties": {"bus": 42, "subst_id": 23, "station": "40 KIE Below"}}, {"type": "Feature", "geometry": {"type": "Point", "coordinates": [21.98445, 51.45246]}, "properties": {"bus": 43, "subst_id": 24, "station": "Kozienice KO"}}, {"type": "Feature", "geometry": {"type": "Point", "coordinates": [21.98445, 51.45246]}, "properties": {"bus": 44, "subst_id": 24, "station": "Kozienice KO"}}, {"type": "Feature", "geometry": {"type": "Point", "coordinates": [21.98445, 51.45246]}, "properties": {"bus": 45, "subst_id": 24, "station": "Kozienice KO"}}, {"type": "Feature", "geometry": {"type": "Point", "coordinates": [21.98445, 51.45246]}, "properties": {"bus": 46, "subst_id": 24, "station": "Kozienice KO"}}, {"type": "Feature", "geometry": {"type": "Point", "coordinates": [20.61355, 50.89901]}, "properties": {"bus": 47, "subst_id": 25, "station": "47 KPK Near "}}, {"type": "Feature", "geometry": {"type": "Point", "coordinates": [21.844416, 49.700467]}, "properties": {"bus": 48, "subst_id": 26, "station": "48 KRI Near "}}, {"type": "Feature", "geometry": {"type": "Point", "coordinates": [21.844416, 49.700467]}, "properties": {"bus": 49, "subst_id": 26, "station": "48 KRI Near "}}, {"type": "Feature", "geometry": {"type": "Point", "coordinates": [22.55456, 51.2388]}, "properties": {"bus": 50, "subst_id": 27, "station": "50 LSY Near "}}, {"type": "Feature", "geometry": {"type": "Point", "coordinates": [23.164123, 50.696397]}, "properties": {"bus": 51, "subst_id": 28, "station": "51 MKR Near "}}, {"type": "Feature", "geometry": {"type": "Point", "coordinates": [23.164123, 50.696397]}, "properties": {"bus": 52, "subst_id": 28, "station": "51 MKR Near "}}, {"type": "Feature", "geometry": {"type": "Point", "coordinates": [21.35682, 50.93341]}, "properties": {"bus": 53, "subst_id": 29, "station": "53 OSC Near "}}, {"type": "Feature", "geometry": {"type": "Point", "coordinates": [21.35682, 50.93341]}, "properties": {"bus": 54, "subst_id": 29, "station": "53 OSC Near "}}, {"type": "Feature", "geometry": {"type": "Point", "coordinates": [21.33682, 50.43543]}, "properties": {"bus": 55, "subst_id": 30, "station": "Polaniec PEL"}}, {"type": "Feature", "geometry": {"type": "Point", "coordinates": [21.33682, 50.43543]}, "properties": {"bus": 56, "subst_id": 30, "station": "Polaniec PEL"}}, {"type": "Feature", "geometry": {"type": "Point", "coordinates": [21.33682, 50.43543]}, "properties": {"bus": 57, "subst_id": 30, "station": "Polaniec PEL"}}, {"type": "Feature", "geometry": {"type": "Point", "coordinates": [21.33682, 50.43543]}, "properties": {"bus": 58, "subst_id": 30, "station": "Polaniec PEL"}}, {"type": "Feature", "geometry": {"type": "Point", "coordinates": [21.98445, 51.45246]}, "properties": {"bus": 59, "subst_id": 31, "station": "Pulawy PUL"}}, {"type": "Feature", "geometry": {"type": "Point", "coordinates": [21.98445, 51.45246]}, "properties": {"bus": 60, "subst_id": 31, "station": "Pulawy PUL"}}, {"type": "Feature", "geometry": {"type": "Point", "coordinates": [20.481071, 50.806185]}, "properties": {"bus": 61, "subst_id": 32, "station": "61 RAD Near "}}, {"type": "Feature", "geometry": {"type": "Point", "coordinates": [21.035412, 51.344634]}, "properties": {"bus": 62, "subst_id": 33, "station": "62 ROZ Near "}}, {"type": "Feature", "geometry": {"type": "Point", "coordinates": [21.035412, 51.344634]}, "properties": {"bus": 63, "subst_id": 33, "station": "62 ROZ Near "}}, {"type": "Feature", "geometry": {"type": "Point", "coordinates": [21.808421, 50.235914]}, "properties": {"bus": 64, "subst_id": 34, "station": "64 RZE Near "}}, {"type": "Feature", "geometry": {"type": "Point", "coordinates": [21.808421, 50.235914]}, "properties": {"bus": 65, "subst_id": 34, "station": "64 RZE Near "}}, {"type": "Feature", "geometry": {"type": "Point", "coordinates": [22.17122, 50.52127]}, "properties": {"bus": 66, "subst_id": 35, "station": "66 STW Stalo"}}, {"type": "Feature", "geometry": {"type": "Point", "coordinates": [22.07734, 50.55]}, "properties": {"bus": 67, "subst_id": 36, "station": "67 But No Sp"}}, {"type": "Feature", "geometry": {"type": "Point", "coordinates": [23.27613, 50.70947]}, "properties": {"bus": 68, "subst_id": 37, "station": "68 ZAM Near "}}, {"type": "Feature", "geometry": {"type": "Point", "coordinates": [19.00182, 50.80841]}, "properties": {"bus": 69, "subst_id": 38, "station": "69 ANI Near "}}, {"type": "Feature", "geometry": {"type": "Point", "coordinates": [20.9668, 50.01525]}, "properties": {"bus": 70, "subst_id": 39, "station": "70 ATA  Near"}}, {"type": "Feature", "geometry": {"type": "Point", "coordinates": [20.9668, 50.01525]}, "properties": {"bus": 71, "subst_id": 39, "station": "70 ATA  Near"}}, {"type": "Feature", "geometry": {"type": "Point", "coordinates": [19.11387, 50.09083]}, "properties": {"bus": 72, "subst_id": 41, "station": "72 BIR Near "}}, {"type": "Feature", "geometry": {"type": "Point", "coordinates": [19.11387, 50.09083]}, "properties": {"bus": 73, "subst_id": 41, "station": "72 BIR Near "}}, {"type": "Feature", "geometry": {"type": "Point", "coordinates": [18.288, 50.35641]}, "properties": {"bus": 74, "subst_id": 42, "station": "74 BLA Near "}}, {"type": "Feature", "geometry": {"type": "Point", "coordinates": [18.288, 50.35641]}, "properties": {"bus": 75, "subst_id": 42, "station": "74 BLA Near "}}, {"type": "Feature", "geometry": {"type": "Point", "coordinates": [19.05465, 49.8132]}, "properties": {"bus": 76, "subst_id": 43, "station": "76 BUJ Porab"}}, {"type": "Feature", "geometry": {"type": "Point", "coordinates": [19.05465, 49.8132]}, "properties": {"bus": 77, "subst_id": 43, "station": "76 BUJ Porab"}}, {"type": "Feature", "geometry": {"type": "Point", "coordinates": [19.20535, 50.20517]}, "properties": {"bus": 78, "subst_id": 44, "station": "Jaworzno BYC"}}, {"type": "Feature", "geometry": {"type": "Point", "coordinates": [19.20535, 50.20517]}, "properties": {"bus": 79, "subst_id": 44, "station": "Jaworzno BYC"}}, {"type": "Feature", "geometry": {"type": "Point", "coordinates": [18.95768, 49.93084]}, "properties": {"bus": 80, "subst_id": 45, "station": "80 CZT Near "}}, {"type": "Feature", "geometry": {"type": "Point", "coordinates": [18.95768, 49.93084]}, "properties": {"bus": 81, "subst_id": 45, "station": "80 CZT Near "}}, {"type": "Feature", "geometry": {"type": "Point", "coordinates": [17.88862, 50.74947]}, "properties": {"bus": 82, "subst_id": 46, "station": "Opole DBN"}}, {"type": "Feature", "geometry": {"type": "Point", "coordinates": [17.99864, 50.62792]}, "properties": {"bus": 83, "subst_id": 47, "station": "83 GRO Near "}}, {"type": "Feature", "geometry": {"type": "Point", "coordinates": [18.80873, 50.29432]}, "properties": {"bus": 84, "subst_id": 48, "station": "84 HAL Near "}}, {"type": "Feature", "geometry": {"type": "Point", "coordinates": [18.80873, 50.29432]}, "properties": {"bus": 85, "subst_id": 48, "station": "84 HAL Near "}}, {"type": "Feature", "geometry": {"type": "Point", "coordinates": [19.04621, 50.77877]}, "properties": {"bus": 86, "subst_id": 49, "station": "86 HCZ Near "}}, {"type": "Feature", "geometry": {"type": "Point", "coordinates": [19.04621, 50.77877]}, "properties": {"bus": 87, "subst_id": 49, "station": "86 HCZ Near "}}, {"type": "Feature", "geometry": {"type": "Point", "coordinates": [19.17749, 50.34431]}, "properties": {"bus": 88, "subst_id": 50, "station": "88 JAM From "}}, {"type": "Feature", "geometry": {"type": "Point", "coordinates": [19.17749, 50.34431]}, "properties": {"bus": 89, "subst_id": 50, "station": "88 JAM From "}}, {"type": "Feature", "geometry": {"type": "Point", "coordinates": [19.1207, 50.81173]}, "properties": {"bus": 90, "subst_id": 51, "station": "90 JOA Near "}}, {"type": "Feature", "geometry": {"type": "Point", "coordinates": [19.1207, 50.81173]}, "properties": {"bus": 91, "subst_id": 51, "station": "90 JOA Near "}}, {"type": "Feature", "geometry": {"type": "Point", "coordinates": [19.1207, 50.81173]}, "properties": {"bus": 92, "subst_id": 51, "station": "90 JOA Near "}}, {"type": "Feature", "geometry": {"type": "Point", "coordinates": [19.1207, 50.81173]}, "properties": {"bus": 93, "subst_id": 51, "station": "90 JOA Near "}}, {"type": "Feature", "geometry": {"type": "Point", "coordinates": [19.07619, 50.29052]}, "properties": {"bus": 94, "subst_id": 52, "station": "94 KAT Near "}}, {"type": "Feature", "geometry": {"type": "Point", "coordinates": [19.07619, 50.29052]}, "properties": {"bus": 95, "subst_id": 52, "station": "94 KAT Near "}}, {"type": "Feature", "geometry": {"type": "Point", "coordinates": [18.28847, 50.28674]}, "properties": {"bus": 96, "subst_id": 53, "station": "96 KED Below"}}, {"type": "Feature", "geometry": {"type": "Point", "coordinates": [18.28847, 50.28674]}, "properties": {"bus": 97, "subst_id": 53, "station": "96 KED Below"}}, {"type": "Feature", "geometry": {"type": "Point", "coordinates": [19.21659, 50.32403]}, "properties": {"bus": 98, "subst_id": 54, "station": "98 KHK Near "}}, {"type": "Feature", "geometry": {"type": "Point", "coordinates": [19.21659, 50.32403]}, "properties": {"bus": 99, "subst_id": 54, "station": "98 KHK Near "}}, {"type": "Feature", "geometry": {"type": "Point", "coordinates": [20.91387, 50.04182]}, "properties": {"bus": 100, "subst_id": 55, "station": "100 KLA Near"}}, {"type": "Feature", "geometry": {"type": "Point", "coordinates": [20.91387, 50.04182]}, "properties": {"bus": 101, "subst_id": 55, "station": "100 KLA Near"}}, {"type": "Feature", "geometry": {"type": "Point", "coordinates": [18.92115, 49.87362]}, "properties": {"bus": 102, "subst_id": 56, "station": "102 KOM Near"}}, {"type": "Feature", "geometry": {"type": "Point", "coordinates": [18.92115, 49.87362]}, "properties": {"bus": 103, "subst_id": 56, "station": "102 KOM Near"}}, {"type": "Feature", "geometry": {"type": "Point", "coordinates": [18.8404, 50.13238]}, "properties": {"bus": 104, "subst_id": 57, "station": "laziska KOP "}}, {"type": "Feature", "geometry": {"type": "Point", "coordinates": [18.8404, 50.13238]}, "properties": {"bus": 105, "subst_id": 57, "station": "laziska KOP "}}, {"type": "Feature", "geometry": {"type": "Point", "coordinates": [19.14104, 50.34967]}, "properties": {"bus": 106, "subst_id": 58, "station": "lagisza LAG,"}}, {"type": "Feature", "geometry": {"type": "Point", "coordinates": [19.14104, 50.34967]}, "properties": {"bus": 107, "subst_id": 58, "station": "lagisza LAG,"}}, {"type": "Feature", "geometry": {"type": "Point", "coordinates": [19.53524, 50.47932]}, "properties": {"bus": 108, "subst_id": 59, "station": "108 LOS Near"}}, {"type": "Feature", "geometry": {"type": "Point", "coordinates": [19.53524, 50.47932]}, "properties": {"bus": 109, "subst_id": 59, "station": "108 LOS Near"}}, {"type": "Feature", "geometry": {"type": "Point", "coordinates": [20.00589, 50.05279]}, "properties": {"bus": 110, "subst_id": 60, "station": "110 LUA Near"}}, {"type": "Feature", "geometry": {"type": "Point", "coordinates": [18.56448, 49.9534]}, "properties": {"bus": 111, "subst_id": 61, "station": "111 MOS at E"}}, {"type": "Feature", "geometry": {"type": "Point", "coordinates": [18.56448, 49.9534]}, "properties": {"bus": 112, "subst_id": 61, "station": "111 MOS at E"}}, {"type": "Feature", "geometry": {"type": "Point", "coordinates": [19.27891, 49.99234]}, "properties": {"bus": 113, "subst_id": 62, "station": "113 PRB Near"}}, {"type": "Feature", "geometry": {"type": "Point", "coordinates": [19.27891, 49.99234]}, "properties": {"bus": 114, "subst_id": 62, "station": "113 PRB Near"}}, {"type": "Feature", "geometry": {"type": "Point", "coordinates": [18.84308, 50.35163]}, "properties": {"bus": 115, "subst_id": 63, "station": "115 ROK at F"}}, {"type": "Feature", "geometry": {"type": "Point", "coordinates": [19.46147, 50.20765]}, "properties": {"bus": 116, "subst_id": 64, "station": "Siersza SIE "}}, {"type": "Feature", "geometry": {"type": "Point", "coordinates": [19.46147, 50.20765]}, "properties": {"bus": 117, "subst_id": 64, "station": "Siersza SIE "}}, {"type": "Feature", "geometry": {"type": "Point", "coordinates": [19.80198, 49.97424]}, "properties": {"bus": 118, "subst_id": 65, "station": "Skawina SKA"}}, {"type": "Feature", "geometry": {"type": "Point", "coordinates": [19.80198, 49.97424]}, "properties": {"bus": 119, "subst_id": 65, "station": "Skawina SKA"}}, {"type": "Feature", "geometry": {"type": "Point", "coordinates": [20.958891, 49.991759]}, "properties": {"bus": 120, "subst_id": 66, "station": "120 TAW Near"}}, {"type": "Feature", "geometry": {"type": "Point", "coordinates": [20.958891, 49.991759]}, "properties": {"bus": 121, "subst_id": 66, "station": "120 TAW Near"}}, {"type": "Feature", "geometry": {"type": "Point", "coordinates": [19.18458, 50.37324]}, "properties": {"bus": 122, "subst_id": 67, "station": "122 TCN Near"}}, {"type": "Feature", "geometry": {"type": "Point", "coordinates": [19.18458, 50.37324]}, "properties": {"bus": 123, "subst_id": 67, "station": "122 TCN Near"}}, {"type": "Feature", "geometry": {"type": "Point", "coordinates": [19.98783, 50.01865]}, "properties": {"bus": 124, "subst_id": 68, "station": "124 WAN Near"}}, {"type": "Feature", "geometry": {"type": "Point", "coordinates": [18.53252, 50.13369]}, "properties": {"bus": 125, "subst_id": 69, "station": "Rybnik WIE"}}, {"type": "Feature", "geometry": {"type": "Point", "coordinates": [18.53252, 50.13369]}, "properties": {"bus": 126, "subst_id": 69, "station": "Rybnik WIE"}}, {"type": "Feature", "geometry": {"type": "Point", "coordinates": [18.53252, 50.13369]}, "properties": {"bus": 127, "subst_id": 69, "station": "Rybnik WIE"}}, {"type": "Feature", "geometry": {"type": "Point", "coordinates": [18.53252, 50.13369]}, "properties": {"bus": 128, "subst_id": 69, "station": "Rybnik WIE"}}, {"type": "Feature", "geometry": {"type": "Point", "coordinates": [19.08262, 50.776676]}, "properties": {"bus": 129, "subst_id": 70, "station": "129, between"}}, {"type": "Feature", "geometry": {"type": "Point", "coordinates": [19.08262, 50.776676]}, "properties": {"bus": 130, "subst_id": 70, "station": "129, between"}}, {"type": "Feature", "geometry": {"type": "Point", "coordinates": [19.11497, 50.7772]}, "properties": {"bus": 131, "subst_id": 71, "station": "131 WRZ"}}, {"type": "Feature", "geometry": {"type": "Point", "coordinates": [19.11161, 49.75513]}, "properties": {"bus": 132, "subst_id": 72, "station": "Porabka-Zar "}}, {"type": "Feature", "geometry": {"type": "Point", "coordinates": [19.11161, 49.75513]}, "properties": {"bus": 133, "subst_id": 72, "station": "Porabka-Zar "}}, {"type": "Feature", "geometry": {"type": "Point", "coordinates": [18.322717, 52.04871]}, "properties": {"bus": 134, "subst_id": 74, "station": "Adamow"}}, {"type": "Feature", "geometry": {"type": "Point", "coordinates": [18.322717, 52.04871]}, "properties": {"bus": 135, "subst_id": 74, "station": "Adamow"}}, {"type": "Feature", "geometry": {"type": "Point", "coordinates": [16.238229, 50.759506]}, "properties": {"bus": 136, "subst_id": 75, "station": "136 BOG Near"}}, {"type": "Feature", "geometry": {"type": "Point", "coordinates": [15.65381, 50.889672]}, "properties": {"bus": 137, "subst_id": 76, "station": "137 CPC Near"}}, {"type": "Feature", "geometry": {"type": "Point", "coordinates": [16.297783, 51.380927]}, "properties": {"bus": 138, "subst_id": 77, "station": "138 CRN"}}, {"type": "Feature", "geometry": {"type": "Point", "coordinates": [16.297783, 51.380927]}, "properties": {"bus": 139, "subst_id": 77, "station": "138 CRN"}}, {"type": "Feature", "geometry": {"type": "Point", "coordinates": [17.496833, 52.466885]}, "properties": {"bus": 140, "subst_id": 78, "station": "140 CZE Czer"}}, {"type": "Feature", "geometry": {"type": "Point", "coordinates": [14.615081, 53.477028]}, "properties": {"bus": 141, "subst_id": 79, "station": "141 GLN Gol?"}}, {"type": "Feature", "geometry": {"type": "Point", "coordinates": [14.615081, 53.477028]}, "properties": {"bus": 142, "subst_id": 79, "station": "141 GLN Gol?"}}, {"type": "Feature", "geometry": {"type": "Point", "coordinates": [15.222813, 52.775002]}, "properties": {"bus": 143, "subst_id": 80, "station": "143 GOR Gorz"}}, {"type": "Feature", "geometry": {"type": "Point", "coordinates": [16.839959, 50.999257]}, "properties": {"bus": 144, "subst_id": 81, "station": "144 WRC/ KLE"}}, {"type": "Feature", "geometry": {"type": "Point", "coordinates": [16.839959, 50.999257]}, "properties": {"bus": 145, "subst_id": 81, "station": "144 WRC/ KLE"}}, {"type": "Feature", "geometry": {"type": "Point", "coordinates": [18.259217, 52.279092]}, "properties": {"bus": 146, "subst_id": 82, "station": "Konin"}}, {"type": "Feature", "geometry": {"type": "Point", "coordinates": [18.259217, 52.279092]}, "properties": {"bus": 147, "subst_id": 82, "station": "Konin"}}, {"type": "Feature", "geometry": {"type": "Point", "coordinates": [14.622588, 53.348377]}, "properties": {"bus": 148, "subst_id": 83, "station": "Dolna Odra"}}, {"type": "Feature", "geometry": {"type": "Point", "coordinates": [14.622588, 53.348377]}, "properties": {"bus": 149, "subst_id": 83, "station": "Dolna Odra"}}, {"type": "Feature", "geometry": {"type": "Point", "coordinates": [14.622588, 53.348377]}, "properties": {"bus": 150, "subst_id": 83, "station": "Dolna Odra"}}, {"type": "Feature", "geometry": {"type": "Point", "coordinates": [14.622588, 53.348377]}, "properties": {"bus": 151, "subst_id": 83, "station": "Dolna Odra"}}, {"type": "Feature", "geometry": {"type": "Point", "coordinates": [16.579464, 51.880647]}, "properties": {"bus": 152, "subst_id": 84, "station": "152 LES Lesz"}}, {"type": "Feature", "geometry": {"type": "Point", "coordinates": [15.279623, 52.063547]}, "properties": {"bus": 153, "subst_id": 85, "station": "153 LSN Le?n"}}, {"type": "Feature", "geometry": {"type": "Point", "coordinates": [15.279623, 52.063547]}, "properties": {"bus": 154, "subst_id": 85, "station": "153 LSN Le?n"}}, {"type": "Feature", "geometry": {"type": "Point", "coordinates": [14.91255, 50.94818]}, "properties": {"bus": 155, "subst_id": 86, "station": "Turow MIK"}}, {"type": "Feature", "geometry": {"type": "Point", "coordinates": [14.91255, 50.94818]}, "properties": {"bus": 156, "subst_id": 86, "station": "Turow MIK"}}, {"type": "Feature", "geometry": {"type": "Point", "coordinates": [14.91255, 50.94818]}, "properties": {"bus": 157, "subst_id": 86, "station": "Turow MIK"}}, {"type": "Feature", "geometry": {"type": "Point", "coordinates": [14.91255, 50.94818]}, "properties": {"bus": 158, "subst_id": 86, "station": "Turow MIK"}}, {"type": "Feature", "geometry": {"type": "Point", "coordinates": [14.91255, 50.94818]}, "properties": {"bus": 159, "subst_id": 86, "station": "Turow MIK"}}, {"type": "Feature", "geometry": {"type": "Point", "coordinates": [14.907181, 53.368544]}, "properties": {"bus": 160, "subst_id": 87, "station": "160 MON - Mo"}}, {"type": "Feature", "geometry": {"type": "Point", "coordinates": [14.907181, 53.368544]}, "properties": {"bus": 161, "subst_id": 87, "station": "160 MON - Mo"}}, {"type": "Feature", "geometry": {"type": "Point", "coordinates": [17.908793, 51.640774]}, "properties": {"bus": 162, "subst_id": 88, "station": "162 OSR Near"}}, {"type": "Feature", "geometry": {"type": "Point", "coordinates": [17.02707, 51.12493]}, "properties": {"bus": 163, "subst_id": 89, "station": "163 PAS Near"}}, {"type": "Feature", "geometry": {"type": "Point", "coordinates": [17.02707, 51.12493]}, "properties": {"bus": 164, "subst_id": 89, "station": "163 PAS Near"}}, {"type": "Feature", "geometry": {"type": "Point", "coordinates": [18.236469, 52.337501]}, "properties": {"bus": 165, "subst_id": 90, "station": "Patnow"}}, {"type": "Feature", "geometry": {"type": "Point", "coordinates": [18.236469, 52.337501]}, "properties": {"bus": 166, "subst_id": 90, "station": "Patnow"}}, {"type": "Feature", "geometry": {"type": "Point", "coordinates": [18.236469, 52.337501]}, "properties": {"bus": 167, "subst_id": 90, "station": "Patnow"}}, {"type": "Feature", "geometry": {"type": "Point", "coordinates": [16.812069, 53.070379]}, "properties": {"bus": 168, "subst_id": 91, "station": "168 PKW Pila"}}, {"type": "Feature", "geometry": {"type": "Point", "coordinates": [14.564555, 53.593514]}, "properties": {"bus": 169, "subst_id": 92, "station": "169 PLC Poli"}}, {"type": "Feature", "geometry": {"type": "Point", "coordinates": [16.869637, 52.418031]}, "properties": {"bus": 170, "subst_id": 93, "station": "170 PLE"}}, {"type": "Feature", "geometry": {"type": "Point", "coordinates": [16.869637, 52.418031]}, "properties": {"bus": 171, "subst_id": 93, "station": "170 PLE"}}, {"type": "Feature", "geometry": {"type": "Point", "coordinates": [16.869637, 52.418031]}, "properties": {"bus": 172, "subst_id": 93, "station": "170 PLE"}}, {"type": "Feature", "geometry": {"type": "Point", "coordinates": [16.869637, 52.418031]}, "properties": {"bus": 173, "subst_id": 93, "station": "170 PLE"}}, {"type": "Feature", "geometry": {"type": "Point", "coordinates": [16.070109, 51.524006]}, "properties": {"bus": 174, "subst_id": 94, "station": "174 POL"}}, {"type": "Feature", "geometry": {"type": "Point", "coordinates": [16.070109, 51.524006]}, "properties": {"bus": 175, "subst_id": 94, "station": "174 POL"}}, {"type": "Feature", "geometry": {"type": "Point", "coordinates": [17.04874, 52.344681]}, "properties": {"bus": 176, "subst_id": 95, "station": "176 PPD Swar"}}, {"type": "Feature", "geometry": {"type": "Point", "coordinates": [16.3132, 50.8547]}, "properties": {"bus": 177, "subst_id": 96, "station": "177 SWI Near"}}, {"type": "Feature", "geometry": {"type": "Point", "coordinates": [16.3132, 50.8547]}, "properties": {"bus": 178, "subst_id": 96, "station": "177 SWI Near"}}, {"type": "Feature", "geometry": {"type": "Point", "coordinates": [16.766434, 50.58845]}, "properties": {"bus": 179, "subst_id": 97, "station": "179 ZBK Near"}}, {"type": "Feature", "geometry": {"type": "Point", "coordinates": [16.766434, 50.58845]}, "properties": {"bus": 180, "subst_id": 97, "station": "179 ZBK Near"}}, {"type": "Feature", "geometry": {"type": "Point", "coordinates": [15.98318, 51.674651]}, "properties": {"bus": 181, "subst_id": 98, "station": "181 ZUK ?uko"}}, {"type": "Feature", "geometry": {"type": "Point", "coordinates": [17.985602, 53.242478]}, "properties": {"bus": 182, "subst_id": 99, "station": "182 BYD Bydg"}}, {"type": "Feature", "geometry": {"type": "Point", "coordinates": [16.107485, 54.109624]}, "properties": {"bus": 183, "subst_id": 100, "station": "183 DUN Duno"}}, {"type": "Feature", "geometry": {"type": "Point", "coordinates": [16.107485, 54.109624]}, "properties": {"bus": 184, "subst_id": 100, "station": "183 DUN Duno"}}, {"type": "Feature", "geometry": {"type": "Point", "coordinates": [16.107485, 54.109624]}, "properties": {"bus": 185, "subst_id": 100, "station": "183 DUN Duno"}}, {"type": "Feature", "geometry": {"type": "Point", "coordinates": [18.627922, 54.404751]}, "properties": {"bus": 186, "subst_id": 101, "station": "186 GBL Gdan"}}, {"type": "Feature", "geometry": {"type": "Point", "coordinates": [18.627922, 54.404751]}, "properties": {"bus": 187, "subst_id": 101, "station": "186 GBL Gdan"}}, {"type": "Feature", "geometry": {"type": "Point", "coordinates": [18.440391, 54.321542]}, "properties": {"bus": 188, "subst_id": 102, "station": "188 GDA Gdan"}}, {"type": "Feature", "geometry": {"type": "Point", "coordinates": [18.440391, 54.321542]}, "properties": {"bus": 189, "subst_id": 102, "station": "188 GDA Gdan"}}, {"type": "Feature", "geometry": {"type": "Point", "coordinates": [18.735241, 53.528536]}, "properties": {"bus": 190, "subst_id": 103, "station": "190 GRU"}}, {"type": "Feature", "geometry": {"type": "Point", "coordinates": [18.735241, 53.528536]}, "properties": {"bus": 191, "subst_id": 103, "station": "190 GRU"}}, {"type": "Feature", "geometry": {"type": "Point", "coordinates": [18.735241, 53.528536]}, "properties": {"bus": 192, "subst_id": 103, "station": "190 GRU"}}, {"type": "Feature", "geometry": {"type": "Point", "coordinates": [18.092276, 53.216196]}, "properties": {"bus": 193, "subst_id": 104, "station": "193 JAS Jast"}}, {"type": "Feature", "geometry": {"type": "Point", "coordinates": [18.092276, 53.216196]}, "properties": {"bus": 194, "subst_id": 104, "station": "193 JAS Jast"}}, {"type": "Feature", "geometry": {"type": "Point", "coordinates": [20.288529, 53.862963]}, "properties": {"bus": 195, "subst_id": 105, "station": "195 OLM Lomy"}}, {"type": "Feature", "geometry": {"type": "Point", "coordinates": [20.288529, 53.862963]}, "properties": {"bus": 196, "subst_id": 105, "station": "195 OLM Lomy"}}, {"type": "Feature", "geometry": {"type": "Point", "coordinates": [20.464877, 53.835961]}, "properties": {"bus": 197, "subst_id": 106, "station": "197 OLS Olsz"}}, {"type": "Feature", "geometry": {"type": "Point", "coordinates": [20.464877, 53.835961]}, "properties": {"bus": 198, "subst_id": 106, "station": "197 OLS Olsz"}}, {"type": "Feature", "geometry": {"type": "Point", "coordinates": [16.983621, 54.470346]}, "properties": {"bus": 199, "subst_id": 107, "station": "199 Intercon"}}, {"type": "Feature", "geometry": {"type": "Point", "coordinates": [16.983621, 54.470346]}, "properties": {"bus": 200, "subst_id": 107, "station": "199 Intercon"}}, {"type": "Feature", "geometry": {"type": "Point", "coordinates": [18.671336, 53.027831]}, "properties": {"bus": 201, "subst_id": 108, "station": "201 TEL Inst"}}, {"type": "Feature", "geometry": {"type": "Point", "coordinates": [18.671336, 53.027831]}, "properties": {"bus": 202, "subst_id": 108, "station": "201 TEL Inst"}}, {"type": "Feature", "geometry": {"type": "Point", "coordinates": [19.04937, 52.680594]}, "properties": {"bus": 203, "subst_id": 109, "station": "203 WLA Wloc"}}, {"type": "Feature", "geometry": {"type": "Point", "coordinates": [19.04937, 52.680594]}, "properties": {"bus": 204, "subst_id": 109, "station": "203 WLA Wloc"}}, {"type": "Feature", "geometry": {"type": "Point", "coordinates": [18.08924, 54.74201]}, "properties": {"bus": 205, "subst_id": 110, "station": "Zarnowiec"}}, {"type": "Feature", "geometry": {"type": "Point", "coordinates": [18.08924, 54.74201]}, "properties": {"bus": 206, "subst_id": 110, "station": "Zarnowiec"}}, {"type": "Feature", "geometry": {"type": "Point", "coordinates": [16.716077, 54.057395]}, "properties": {"bus": 207, "subst_id": 111, "station": "207 ZYD Zydo"}}, {"type": "Feature", "geometry": {"type": "Point", "coordinates": [16.716077, 54.057395]}, "properties": {"bus": 208, "subst_id": 111, "station": "207 ZYD Zydo"}}, {"type": "Feature", "geometry": {"type": "Point", "coordinates": [19.372636, 51.918277]}, "properties": {"bus": 229, "subst_id": 18, "station": "34 ZGI Zgier"}}, {"type": "Feature", "geometry": {"type": "Point", "coordinates": [19.372636, 51.918277]}, "properties": {"bus": 230, "subst_id": 18, "station": "34 ZGI Zgier"}}, {"type": "Feature", "geometry": {"type": "Point", "coordinates": [19.31765, 51.26719]}, "properties": {"bus": 245, "subst_id": 14, "station": "Belchatow RO"}}, {"type": "Feature", "geometry": {"type": "Point", "coordinates": [19.31765, 51.26719]}, "properties": {"bus": 246, "subst_id": 14, "station": "Belchatow RO"}}, {"type": "Feature", "geometry": {"type": "Point", "coordinates": [22.360136, 53.833765]}, "properties": {"bus": 248, "subst_id": 2, "station": "3 ELK Elk"}}, {"type": "Feature", "geometry": {"type": "Point", "coordinates": [22.360136, 53.833765]}, "properties": {"bus": 249, "subst_id": 2, "station": "3 ELK Elk"}}, {"type": "Feature", "geometry": {"type": "Point", "coordinates": [19.567643, 51.76127]}, "properties": {"bus": 275, "subst_id": 3, "station": "4 JAN Sub"}}, {"type": "Feature", "geometry": {"type": "Point", "coordinates": [19.567643, 51.76127]}, "properties": {"bus": 276, "subst_id": 3, "station": "4 JAN Sub"}}, {"type": "Feature", "geometry": {"type": "Point", "coordinates": [21.270414, 52.25798]}, "properties": {"bus": 339, "subst_id": 4, "station": "6 MIL"}}, {"type": "Feature", "geometry": {"type": "Point", "coordinates": [21.270414, 52.25798]}, "properties": {"bus": 340, "subst_id": 4, "station": "6 MIL"}}, {"type": "Feature", "geometry": {"type": "Point", "coordinates": [21.042793, 52.215282]}, "properties": {"bus": 351, "subst_id": 5, "station": "10 MOR"}}, {"type": "Feature", "geometry": {"type": "Point", "coordinates": [21.042793, 52.215282]}, "properties": {"bus": 352, "subst_id": 5, "station": "10 MOR"}}, {"type": "Feature", "geometry": {"type": "Point", "coordinates": [21.042793, 52.215282]}, "properties": {"bus": 353, "subst_id": 5, "station": "10 MOR"}}, {"type": "Feature", "geometry": {"type": "Point", "coordinates": [21.042793, 52.215282]}, "properties": {"bus": 354, "subst_id": 5, "station": "10 MOR"}}, {"type": "Feature", "geometry": {"type": "Point", "coordinates": [20.869541, 52.28928]}, "properties": {"bus": 358, "subst_id": 6, "station": "13 MSK"}}, {"type": "Feature", "geometry": {"type": "Point", "coordinates": [20.869541, 52.28928]}, "properties": {"bus": 359, "subst_id": 6, "station": "13 MSK"}}, {"type": "Feature", "geometry": {"type": "Point", "coordinates": [23.761886, 52.834167]}, "properties": {"bus": 366, "subst_id": 7, "station": "15 NAR Narew"}}, {"type": "Feature", "geometry": {"type": "Point", "coordinates": [21.538187, 53.15154]}, "properties": {"bus": 382, "subst_id": 8, "station": "Ostroleka"}}, {"type": "Feature", "geometry": {"type": "Point", "coordinates": [21.538187, 53.15154]}, "properties": {"bus": 383, "subst_id": 8, "station": "Ostroleka"}}, {"type": "Feature", "geometry": {"type": "Point", "coordinates": [19.419561, 51.688017]}, "properties": {"bus": 388, "subst_id": 9, "station": "19 PAB Near "}}, {"type": "Feature", "geometry": {"type": "Point", "coordinates": [19.419561, 51.688017]}, "properties": {"bus": 389, "subst_id": 9, "station": "19 PAB Near "}}, {"type": "Feature", "geometry": {"type": "Point", "coordinates": [19.1778, 51.21298]}, "properties": {"bus": 390, "subst_id": 1, "station": "1 BEK Near P"}}, {"type": "Feature", "geometry": {"type": "Point", "coordinates": [19.1778, 51.21298]}, "properties": {"bus": 391, "subst_id": 1, "station": "1 BEK Near P"}}, {"type": "Feature", "geometry": {"type": "Point", "coordinates": [19.680669, 52.600717]}, "properties": {"bus": 395, "subst_id": 10, "station": "21 PDE Plock"}}, {"type": "Feature", "geometry": {"type": "Point", "coordinates": [19.680669, 52.600717]}, "properties": {"bus": 396, "subst_id": 10, "station": "21 PDE Plock"}}, {"type": "Feature", "geometry": {"type": "Point", "coordinates": [21.02048, 52.12044]}, "properties": {"bus": 401, "subst_id": 11, "station": "23 PIA"}}, {"type": "Feature", "geometry": {"type": "Point", "coordinates": [21.02048, 52.12044]}, "properties": {"bus": 402, "subst_id": 11, "station": "23 PIA"}}, {"type": "Feature", "geometry": {"type": "Point", "coordinates": [19.645897, 51.432817]}, "properties": {"bus": 403, "subst_id": 12, "station": "24 PIO Near "}}, {"type": "Feature", "geometry": {"type": "Point", "coordinates": [19.645897, 51.432817]}, "properties": {"bus": 404, "subst_id": 12, "station": "24 PIO Near "}}, {"type": "Feature", "geometry": {"type": "Point", "coordinates": [20.41239, 52.741399]}, "properties": {"bus": 410, "subst_id": 13, "station": "25 PLO"}}, {"type": "Feature", "geometry": {"type": "Point", "coordinates": [20.230707, 52.271387]}, "properties": {"bus": 461, "subst_id": 15, "station": "30 SOC Socha"}}, {"type": "Feature", "geometry": {"type": "Point", "coordinates": [20.230707, 52.271387]}, "properties": {"bus": 462, "subst_id": 15, "station": "30 SOC Socha"}}, {"type": "Feature", "geometry": {"type": "Point", "coordinates": [18.91469, 51.13949]}, "properties": {"bus": 486, "subst_id": 16, "station": "31 TRE near "}}, {"type": "Feature", "geometry": {"type": "Point", "coordinates": [18.91469, 51.13949]}, "properties": {"bus": 487, "subst_id": 16, "station": "31 TRE near "}}, {"type": "Feature", "geometry": {"type": "Point", "coordinates": [20.00603, 50.051795]}, "properties": {"bus": 534, "subst_id": 371, "station": "Krakow Leg"}}, {"type": "Feature", "geometry": {"type": "Point", "coordinates": [20.00603, 50.051795]}, "properties": {"bus": 535, "subst_id": 371, "station": "Krakow Leg"}}, {"type": "Feature", "geometry": {"type": "Point", "coordinates": [21.111176, 52.300503]}, "properties": {"bus": 543, "subst_id": 17, "station": "32 WTO Zabki"}}, {"type": "Feature", "geometry": {"type": "Point", "coordinates": [19.372636, 51.918277]}, "properties": {"bus": 570, "subst_id": 18, "station": "34 ZGI Zgier"}}, {"type": "Feature", "geometry": {"type": "Point", "coordinates": [19.372636, 51.918277]}, "properties": {"bus": 571, "subst_id": 18, "station": "34 ZGI Zgier"}}, {"type": "Feature", "geometry": {"type": "Point", "coordinates": [22.55763, 51.21738]}, "properties": {"bus": 583, "subst_id": 19, "station": "35 ABR Near "}}, {"type": "Feature", "geometry": {"type": "Point", "coordinates": [22.55763, 51.21738]}, "properties": {"bus": 584, "subst_id": 19, "station": "35 ABR Near "}}, {"type": "Feature", "geometry": {"type": "Point", "coordinates": [21.933098, 50.029741]}, "properties": {"bus": 589, "subst_id": 20, "station": "36 BGC Near "}}, {"type": "Feature", "geometry": {"type": "Point", "coordinates": [21.933098, 50.029741]}, "properties": {"bus": 590, "subst_id": 20, "station": "36 BGC Near "}}, {"type": "Feature", "geometry": {"type": "Point", "coordinates": [21.6759, 50.57171]}, "properties": {"bus": 609, "subst_id": 21, "station": "37 CHM Near "}}, {"type": "Feature", "geometry": {"type": "Point", "coordinates": [21.6759, 50.57171]}, "properties": {"bus": 610, "subst_id": 21, "station": "37 CHM Near "}}, {"type": "Feature", "geometry": {"type": "Point", "coordinates": [23.443027, 51.171112]}, "properties": {"bus": 613, "subst_id": 22, "station": "39 CHS Near "}}, {"type": "Feature", "geometry": {"type": "Point", "coordinates": [23.443027, 51.171112]}, "properties": {"bus": 614, "subst_id": 22, "station": "39 CHS Near "}}, {"type": "Feature", "geometry": {"type": "Point", "coordinates": [21.98445, 51.45246]}, "properties": {"bus": 660, "subst_id": 24, "station": "Kozienice KO"}}, {"type": "Feature", "geometry": {"type": "Point", "coordinates": [21.98445, 51.45246]}, "properties": {"bus": 661, "subst_id": 24, "station": "Kozienice KO"}}, {"type": "Feature", "geometry": {"type": "Point", "coordinates": [20.61355, 50.89901]}, "properties": {"bus": 663, "subst_id": 25, "station": "47 KPK Near "}}, {"type": "Feature", "geometry": {"type": "Point", "coordinates": [21.844416, 49.700467]}, "properties": {"bus": 665, "subst_id": 26, "station": "48 KRI Near "}}, {"type": "Feature", "geometry": {"type": "Point", "coordinates": [15.488889, 51.951111]}, "properties": {"bus": 681, "subst_id": 488, "station": "Zielona Gora"}}, {"type": "Feature", "geometry": {"type": "Point", "coordinates": [15.488889, 51.951111]}, "properties": {"bus": 682, "subst_id": 488, "station": "Zielona Gora"}}, {"type": "Feature", "geometry": {"type": "Point", "coordinates": [22.55456, 51.2388]}, "properties": {"bus": 692, "subst_id": 27, "station": "50 LSY Near "}}, {"type": "Feature", "geometry": {"type": "Point", "coordinates": [22.55456, 51.2388]}, "properties": {"bus": 693, "subst_id": 27, "station": "50 LSY Near "}}, {"type": "Feature", "geometry": {"type": "Point", "coordinates": [23.164123, 50.696397]}, "properties": {"bus": 710, "subst_id": 28, "station": "51 MKR Near "}}, {"type": "Feature", "geometry": {"type": "Point", "coordinates": [23.164123, 50.696397]}, "properties": {"bus": 711, "subst_id": 28, "station": "51 MKR Near "}}, {"type": "Feature", "geometry": {"type": "Point", "coordinates": [21.35682, 50.93341]}, "properties": {"bus": 726, "subst_id": 29, "station": "53 OSC Near "}}, {"type": "Feature", "geometry": {"type": "Point", "coordinates": [21.35682, 50.93341]}, "properties": {"bus": 727, "subst_id": 29, "station": "53 OSC Near "}}, {"type": "Feature", "geometry": {"type": "Point", "coordinates": [21.35682, 50.93341]}, "properties": {"bus": 730, "subst_id": 29, "station": "53 OSC Near "}}, {"type": "Feature", "geometry": {"type": "Point", "coordinates": [21.33682, 50.43543]}, "properties": {"bus": 736, "subst_id": 30, "station": "Polaniec PEL"}}, {"type": "Feature", "geometry": {"type": "Point", "coordinates": [21.33682, 50.43543]}, "properties": {"bus": 737, "subst_id": 30, "station": "Polaniec PEL"}}, {"type": "Feature", "geometry": {"type": "Point", "coordinates": [20.481071, 50.806185]}, "properties": {"bus": 754, "subst_id": 32, "station": "61 RAD Near "}}, {"type": "Feature", "geometry": {"type": "Point", "coordinates": [20.481071, 50.806185]}, "properties": {"bus": 755, "subst_id": 32, "station": "61 RAD Near "}}, {"type": "Feature", "geometry": {"type": "Point", "coordinates": [21.035412, 51.344634]}, "properties": {"bus": 764, "subst_id": 33, "station": "62 ROZ Near "}}, {"type": "Feature", "geometry": {"type": "Point", "coordinates": [21.035412, 51.344634]}, "properties": {"bus": 765, "subst_id": 33, "station": "62 ROZ Near "}}, {"type": "Feature", "geometry": {"type": "Point", "coordinates": [21.808421, 50.235914]}, "properties": {"bus": 774, "subst_id": 34, "station": "64 RZE Near "}}, {"type": "Feature", "geometry": {"type": "Point", "coordinates": [21.808421, 50.235914]}, "properties": {"bus": 775, "subst_id": 34, "station": "64 RZE Near "}}, {"type": "Feature", "geometry": {"type": "Point", "coordinates": [22.17122, 50.52127]}, "properties": {"bus": 803, "subst_id": 35, "station": "66 STW Stalo"}}, {"type": "Feature", "geometry": {"type": "Point", "coordinates": [22.17122, 50.52127]}, "properties": {"bus": 804, "subst_id": 35, "station": "66 STW Stalo"}}, {"type": "Feature", "geometry": {"type": "Point", "coordinates": [23.27613, 50.70947]}, "properties": {"bus": 828, "subst_id": 37, "station": "68 ZAM Near "}}, {"type": "Feature", "geometry": {"type": "Point", "coordinates": [19.00182, 50.80841]}, "properties": {"bus": 850, "subst_id": 38, "station": "69 ANI Near "}}, {"type": "Feature", "geometry": {"type": "Point", "coordinates": [19.00182, 50.80841]}, "properties": {"bus": 851, "subst_id": 38, "station": "69 ANI Near "}}, {"type": "Feature", "geometry": {"type": "Point", "coordinates": [19.11387, 50.09083]}, "properties": {"bus": 880, "subst_id": 41, "station": "72 BIR Near "}}, {"type": "Feature", "geometry": {"type": "Point", "coordinates": [19.11387, 50.09083]}, "properties": {"bus": 881, "subst_id": 41, "station": "72 BIR Near "}}, {"type": "Feature", "geometry": {"type": "Point", "coordinates": [18.288, 50.35641]}, "properties": {"bus": 895, "subst_id": 42, "station": "74 BLA Near "}}, {"type": "Feature", "geometry": {"type": "Point", "coordinates": [18.288, 50.35641]}, "properties": {"bus": 896, "subst_id": 42, "station": "74 BLA Near "}}, {"type": "Feature", "geometry": {"type": "Point", "coordinates": [18.288, 50.35641]}, "properties": {"bus": 897, "subst_id": 42, "station": "74 BLA Near "}}, {"type": "Feature", "geometry": {"type": "Point", "coordinates": [19.07619, 50.29052]}, "properties": {"bus": 905, "subst_id": 52, "station": "94 KAT Near "}}, {"type": "Feature", "geometry": {"type": "Point", "coordinates": [19.07619, 50.29052]}, "properties": {"bus": 906, "subst_id": 52, "station": "94 KAT Near "}}, {"type": "Feature", "geometry": {"type": "Point", "coordinates": [18.80873, 50.29432]}, "properties": {"bus": 919, "subst_id": 48, "station": "84 HAL Near "}}, {"type": "Feature", "geometry": {"type": "Point", "coordinates": [18.80873, 50.29432]}, "properties": {"bus": 920, "subst_id": 48, "station": "84 HAL Near "}}, {"type": "Feature", "geometry": {"type": "Point", "coordinates": [18.80873, 50.29432]}, "properties": {"bus": 921, "subst_id": 48, "station": "84 HAL Near "}}, {"type": "Feature", "geometry": {"type": "Point", "coordinates": [18.80873, 50.29432]}, "properties": {"bus": 922, "subst_id": 48, "station": "84 HAL Near "}}, {"type": "Feature", "geometry": {"type": "Point", "coordinates": [17.88862, 50.74947]}, "properties": {"bus": 998, "subst_id": 46, "station": "Opole DBN"}}, {"type": "Feature", "geometry": {"type": "Point", "coordinates": [17.88862, 50.74947]}, "properties": {"bus": 999, "subst_id": 46, "station": "Opole DBN"}}, {"type": "Feature", "geometry": {"type": "Point", "coordinates": [19.07619, 50.29052]}, "properties": {"bus": 1031, "subst_id": 52, "station": "94 KAT Near "}}, {"type": "Feature", "geometry": {"type": "Point", "coordinates": [17.99864, 50.62792]}, "properties": {"bus": 1050, "subst_id": 47, "station": "83 GRO Near "}}, {"type": "Feature", "geometry": {"type": "Point", "coordinates": [17.99864, 50.62792]}, "properties": {"bus": 1051, "subst_id": 47, "station": "83 GRO Near "}}, {"type": "Feature", "geometry": {"type": "Point", "coordinates": [18.84308, 50.35163]}, "properties": {"bus": 1078, "subst_id": 63, "station": "115 ROK at F"}}, {"type": "Feature", "geometry": {"type": "Point", "coordinates": [18.84308, 50.35163]}, "properties": {"bus": 1079, "subst_id": 63, "station": "115 ROK at F"}}, {"type": "Feature", "geometry": {"type": "Point", "coordinates": [18.84308, 50.35163]}, "properties": {"bus": 1080, "subst_id": 63, "station": "115 ROK at F"}}, {"type": "Feature", "geometry": {"type": "Point", "coordinates": [18.84308, 50.35163]}, "properties": {"bus": 1081, "subst_id": 63, "station": "115 ROK at F"}}, {"type": "Feature", "geometry": {"type": "Point", "coordinates": [17.99864, 50.62792]}, "properties": {"bus": 1088, "subst_id": 47, "station": "83 GRO Near "}}, {"type": "Feature", "geometry": {"type": "Point", "coordinates": [17.99864, 50.62792]}, "properties": {"bus": 1089, "subst_id": 47, "station": "83 GRO Near "}}, {"type": "Feature", "geometry": {"type": "Point", "coordinates": [18.80873, 50.29432]}, "properties": {"bus": 1110, "subst_id": 48, "station": "84 HAL Near "}}, {"type": "Feature", "geometry": {"type": "Point", "coordinates": [18.80873, 50.29432]}, "properties": {"bus": 1111, "subst_id": 48, "station": "84 HAL Near "}}, {"type": "Feature", "geometry": {"type": "Point", "coordinates": [18.80873, 50.29432]}, "properties": {"bus": 1112, "subst_id": 48, "station": "84 HAL Near "}}, {"type": "Feature", "geometry": {"type": "Point", "coordinates": [18.8404, 50.13238]}, "properties": {"bus": 1136, "subst_id": 57, "station": "laziska KOP "}}, {"type": "Feature", "geometry": {"type": "Point", "coordinates": [18.8404, 50.13238]}, "properties": {"bus": 1137, "subst_id": 57, "station": "laziska KOP "}}, {"type": "Feature", "geometry": {"type": "Point", "coordinates": [18.8404, 50.13238]}, "properties": {"bus": 1138, "subst_id": 57, "station": "laziska KOP "}}, {"type": "Feature", "geometry": {"type": "Point", "coordinates": [18.8404, 50.13238]}, "properties": {"bus": 1139, "subst_id": 57, "station": "laziska KOP "}}, {"type": "Feature", "geometry": {"type": "Point", "coordinates": [18.8404, 50.13238]}, "properties": {"bus": 1140, "subst_id": 57, "station": "laziska KOP "}}, {"type": "Feature", "geometry": {"type": "Point", "coordinates": [18.8404, 50.13238]}, "properties": {"bus": 1141, "subst_id": 57, "station": "laziska KOP "}}, {"type": "Feature", "geometry": {"type": "Point", "coordinates": [20.00589, 50.05279]}, "properties": {"bus": 1158, "subst_id": 60, "station": "110 LUA Near"}}, {"type": "Feature", "geometry": {"type": "Point", "coordinates": [20.00589, 50.05279]}, "properties": {"bus": 1159, "subst_id": 60, "station": "110 LUA Near"}}, {"type": "Feature", "geometry": {"type": "Point", "coordinates": [20.00589, 50.05279]}, "properties": {"bus": 1160, "subst_id": 60, "station": "110 LUA Near"}}, {"type": "Feature", "geometry": {"type": "Point", "coordinates": [19.98783, 50.01865]}, "properties": {"bus": 1161, "subst_id": 68, "station": "124 WAN Near"}}, {"type": "Feature", "geometry": {"type": "Point", "coordinates": [19.98783, 50.01865]}, "properties": {"bus": 1162, "subst_id": 68, "station": "124 WAN Near"}}, {"type": "Feature", "geometry": {"type": "Point", "coordinates": [19.17749, 50.34431]}, "properties": {"bus": 1186, "subst_id": 50, "station": "88 JAM From "}}, {"type": "Feature", "geometry": {"type": "Point", "coordinates": [19.17749, 50.34431]}, "properties": {"bus": 1187, "subst_id": 50, "station": "88 JAM From "}}, {"type": "Feature", "geometry": {"type": "Point", "coordinates": [19.07619, 50.29052]}, "properties": {"bus": 1231, "subst_id": 52, "station": "94 KAT Near "}}, {"type": "Feature", "geometry": {"type": "Point", "coordinates": [19.07619, 50.29052]}, "properties": {"bus": 1232, "subst_id": 52, "station": "94 KAT Near "}}, {"type": "Feature", "geometry": {"type": "Point", "coordinates": [18.28847, 50.28674]}, "properties": {"bus": 1245, "subst_id": 53, "station": "96 KED Below"}}, {"type": "Feature", "geometry": {"type": "Point", "coordinates": [18.28847, 50.28674]}, "properties": {"bus": 1246, "subst_id": 53, "station": "96 KED Below"}}, {"type": "Feature", "geometry": {"type": "Point", "coordinates": [18.80873, 50.29432]}, "properties": {"bus": 1249, "subst_id": 48, "station": "84 HAL Near "}}, {"type": "Feature", "geometry": {"type": "Point", "coordinates": [18.80873, 50.29432]}, "properties": {"bus": 1251, "subst_id": 48, "station": "84 HAL Near "}}, {"type": "Feature", "geometry": {"type": "Point", "coordinates": [20.91387, 50.04182]}, "properties": {"bus": 1253, "subst_id": 55, "station": "100 KLA Near"}}, {"type": "Feature", "geometry": {"type": "Point", "coordinates": [20.91387, 50.04182]}, "properties": {"bus": 1254, "subst_id": 55, "station": "100 KLA Near"}}, {"type": "Feature", "geometry": {"type": "Point", "coordinates": [18.92115, 49.87362]}, "properties": {"bus": 1284, "subst_id": 56, "station": "102 KOM Near"}}, {"type": "Feature", "geometry": {"type": "Point", "coordinates": [18.92115, 49.87362]}, "properties": {"bus": 1285, "subst_id": 56, "station": "102 KOM Near"}}, {"type": "Feature", "geometry": {"type": "Point", "coordinates": [18.8404, 50.13238]}, "properties": {"bus": 1286, "subst_id": 57, "station": "laziska KOP "}}, {"type": "Feature", "geometry": {"type": "Point", "coordinates": [18.8404, 50.13238]}, "properties": {"bus": 1287, "subst_id": 57, "station": "laziska KOP "}}, {"type": "Feature", "geometry": {"type": "Point", "coordinates": [19.14104, 50.34967]}, "properties": {"bus": 1350, "subst_id": 58, "station": "lagisza LAG,"}}, {"type": "Feature", "geometry": {"type": "Point", "coordinates": [19.14104, 50.34967]}, "properties": {"bus": 1351, "subst_id": 58, "station": "lagisza LAG,"}}, {"type": "Feature", "geometry": {"type": "Point", "coordinates": [19.14104, 50.34967]}, "properties": {"bus": 1352, "subst_id": 58, "station": "lagisza LAG,"}}, {"type": "Feature", "geometry": {"type": "Point", "coordinates": [18.8404, 50.13238]}, "properties": {"bus": 1361, "subst_id": 57, "station": "laziska KOP "}}, {"type": "Feature", "geometry": {"type": "Point", "coordinates": [18.8404, 50.13238]}, "properties": {"bus": 1362, "subst_id": 57, "station": "laziska KOP "}}, {"type": "Feature", "geometry": {"type": "Point", "coordinates": [20.993611, 52.294444]}, "properties": {"bus": 1373, "subst_id": 868, "station": "EC Zeran"}}, {"type": "Feature", "geometry": {"type": "Point", "coordinates": [20.993611, 52.294444]}, "properties": {"bus": 1374, "subst_id": 868, "station": "EC Zeran"}}, {"type": "Feature", "geometry": {"type": "Point", "coordinates": [20.993611, 52.294444]}, "properties": {"bus": 1375, "subst_id": 868, "station": "EC Zeran"}}, {"type": "Feature", "geometry": {"type": "Point", "coordinates": [19.53524, 50.47932]}, "properties": {"bus": 1386, "subst_id": 59, "station": "108 LOS Near"}}, {"type": "Feature", "geometry": {"type": "Point", "coordinates": [19.53524, 50.47932]}, "properties": {"bus": 1387, "subst_id": 59, "station": "108 LOS Near"}}, {"type": "Feature", "geometry": {"type": "Point", "coordinates": [20.00589, 50.05279]}, "properties": {"bus": 1392, "subst_id": 60, "station": "110 LUA Near"}}, {"type": "Feature", "geometry": {"type": "Point", "coordinates": [20.00589, 50.05279]}, "properties": {"bus": 1393, "subst_id": 60, "station": "110 LUA Near"}}, {"type": "Feature", "geometry": {"type": "Point", "coordinates": [18.56448, 49.9534]}, "properties": {"bus": 1433, "subst_id": 61, "station": "111 MOS at E"}}, {"type": "Feature", "geometry": {"type": "Point", "coordinates": [18.56448, 49.9534]}, "properties": {"bus": 1434, "subst_id": 61, "station": "111 MOS at E"}}, {"type": "Feature", "geometry": {"type": "Point", "coordinates": [19.17749, 50.34431]}, "properties": {"bus": 1550, "subst_id": 50, "station": "88 JAM From "}}, {"type": "Feature", "geometry": {"type": "Point", "coordinates": [19.17749, 50.34431]}, "properties": {"bus": 1551, "subst_id": 50, "station": "88 JAM From "}}, {"type": "Feature", "geometry": {"type": "Point", "coordinates": [19.27891, 49.99234]}, "properties": {"bus": 1572, "subst_id": 62, "station": "113 PRB Near"}}, {"type": "Feature", "geometry": {"type": "Point", "coordinates": [19.27891, 49.99234]}, "properties": {"bus": 1573, "subst_id": 62, "station": "113 PRB Near"}}, {"type": "Feature", "geometry": {"type": "Point", "coordinates": [18.84308, 50.35163]}, "properties": {"bus": 1632, "subst_id": 63, "station": "115 ROK at F"}}, {"type": "Feature", "geometry": {"type": "Point", "coordinates": [18.84308, 50.35163]}, "properties": {"bus": 1633, "subst_id": 63, "station": "115 ROK at F"}}, {"type": "Feature", "geometry": {"type": "Point", "coordinates": [18.84308, 50.35163]}, "properties": {"bus": 1634, "subst_id": 63, "station": "115 ROK at F"}}, {"type": "Feature", "geometry": {"type": "Point", "coordinates": [18.8404, 50.13238]}, "properties": {"bus": 1649, "subst_id": 57, "station": "laziska KOP "}}, {"type": "Feature", "geometry": {"type": "Point", "coordinates": [18.8404, 50.13238]}, "properties": {"bus": 1650, "subst_id": 57, "station": "laziska KOP "}}, {"type": "Feature", "geometry": {"type": "Point", "coordinates": [18.8404, 50.13238]}, "properties": {"bus": 1651, "subst_id": 57, "station": "laziska KOP "}}, {"type": "Feature", "geometry": {"type": "Point", "coordinates": [19.46147, 50.20765]}, "properties": {"bus": 1675, "subst_id": 64, "station": "Siersza SIE "}}, {"type": "Feature", "geometry": {"type": "Point", "coordinates": [19.46147, 50.20765]}, "properties": {"bus": 1676, "subst_id": 64, "station": "Siersza SIE "}}, {"type": "Feature", "geometry": {"type": "Point", "coordinates": [19.46147, 50.20765]}, "properties": {"bus": 1677, "subst_id": 64, "station": "Siersza SIE "}}, {"type": "Feature", "geometry": {"type": "Point", "coordinates": [19.80198, 49.97424]}, "properties": {"bus": 1687, "subst_id": 65, "station": "Skawina SKA"}}, {"type": "Feature", "geometry": {"type": "Point", "coordinates": [19.80198, 49.97424]}, "properties": {"bus": 1688, "subst_id": 65, "station": "Skawina SKA"}}, {"type": "Feature", "geometry": {"type": "Point", "coordinates": [19.80198, 49.97424]}, "properties": {"bus": 1693, "subst_id": 65, "station": "Skawina SKA"}}, {"type": "Feature", "geometry": {"type": "Point", "coordinates": [19.80198, 49.97424]}, "properties": {"bus": 1694, "subst_id": 65, "station": "Skawina SKA"}}, {"type": "Feature", "geometry": {"type": "Point", "coordinates": [20.958891, 49.991759]}, "properties": {"bus": 1795, "subst_id": 66, "station": "120 TAW Near"}}, {"type": "Feature", "geometry": {"type": "Point", "coordinates": [20.958891, 49.991759]}, "properties": {"bus": 1796, "subst_id": 66, "station": "120 TAW Near"}}, {"type": "Feature", "geometry": {"type": "Point", "coordinates": [19.18458, 50.37324]}, "properties": {"bus": 1797, "subst_id": 67, "station": "122 TCN Near"}}, {"type": "Feature", "geometry": {"type": "Point", "coordinates": [19.18458, 50.37324]}, "properties": {"bus": 1798, "subst_id": 67, "station": "122 TCN Near"}}, {"type": "Feature", "geometry": {"type": "Point", "coordinates": [19.98783, 50.01865]}, "properties": {"bus": 1822, "subst_id": 68, "station": "124 WAN Near"}}, {"type": "Feature", "geometry": {"type": "Point", "coordinates": [19.98783, 50.01865]}, "properties": {"bus": 1823, "subst_id": 68, "station": "124 WAN Near"}}, {"type": "Feature", "geometry": {"type": "Point", "coordinates": [18.53252, 50.13369]}, "properties": {"bus": 1841, "subst_id": 69, "station": "Rybnik WIE"}}, {"type": "Feature", "geometry": {"type": "Point", "coordinates": [18.53252, 50.13369]}, "properties": {"bus": 1842, "subst_id": 69, "station": "Rybnik WIE"}}, {"type": "Feature", "geometry": {"type": "Point", "coordinates": [18.53252, 50.13369]}, "properties": {"bus": 1843, "subst_id": 69, "station": "Rybnik WIE"}}, {"type": "Feature", "geometry": {"type": "Point", "coordinates": [19.08262, 50.776676]}, "properties": {"bus": 1863, "subst_id": 70, "station": "129, between"}}, {"type": "Feature", "geometry": {"type": "Point", "coordinates": [19.08262, 50.776676]}, "properties": {"bus": 1864, "subst_id": 70, "station": "129, between"}}, {"type": "Feature", "geometry": {"type": "Point", "coordinates": [19.53524, 50.47932]}, "properties": {"bus": 1901, "subst_id": 59, "station": "108 LOS Near"}}, {"type": "Feature", "geometry": {"type": "Point", "coordinates": [19.53524, 50.47932]}, "properties": {"bus": 1902, "subst_id": 59, "station": "108 LOS Near"}}, {"type": "Feature", "geometry": {"type": "Point", "coordinates": [19.53524, 50.47932]}, "properties": {"bus": 1918, "subst_id": 59, "station": "108 LOS Near"}}, {"type": "Feature", "geometry": {"type": "Point", "coordinates": [19.53524, 50.47932]}, "properties": {"bus": 1919, "subst_id": 59, "station": "108 LOS Near"}}, {"type": "Feature", "geometry": {"type": "Point", "coordinates": [18.322717, 52.04871]}, "properties": {"bus": 1932, "subst_id": 74, "station": "Adamow"}}, {"type": "Feature", "geometry": {"type": "Point", "coordinates": [18.322717, 52.04871]}, "properties": {"bus": 1933, "subst_id": 74, "station": "Adamow"}}, {"type": "Feature", "geometry": {"type": "Point", "coordinates": [18.322717, 52.04871]}, "properties": {"bus": 1934, "subst_id": 74, "station": "Adamow"}}, {"type": "Feature", "geometry": {"type": "Point", "coordinates": [16.238229, 50.759506]}, "properties": {"bus": 1955, "subst_id": 75, "station": "136 BOG Near"}}, {"type": "Feature", "geometry": {"type": "Point", "coordinates": [16.238229, 50.759506]}, "properties": {"bus": 1956, "subst_id": 75, "station": "136 BOG Near"}}, {"type": "Feature", "geometry": {"type": "Point", "coordinates": [22.558387, 51.216454]}, "properties": {"bus": 1978, "subst_id": 1157, "station": "Lublin-Wrotk"}}, {"type": "Feature", "geometry": {"type": "Point", "coordinates": [15.65381, 50.889672]}, "properties": {"bus": 1979, "subst_id": 76, "station": "137 CPC Near"}}, {"type": "Feature", "geometry": {"type": "Point", "coordinates": [15.65381, 50.889672]}, "properties": {"bus": 1980, "subst_id": 76, "station": "137 CPC Near"}}, {"type": "Feature", "geometry": {"type": "Point", "coordinates": [16.297783, 51.380927]}, "properties": {"bus": 1981, "subst_id": 77, "station": "138 CRN"}}, {"type": "Feature", "geometry": {"type": "Point", "coordinates": [16.297783, 51.380927]}, "properties": {"bus": 1982, "subst_id": 77, "station": "138 CRN"}}, {"type": "Feature", "geometry": {"type": "Point", "coordinates": [17.496833, 52.466885]}, "properties": {"bus": 1987, "subst_id": 78, "station": "140 CZE Czer"}}, {"type": "Feature", "geometry": {"type": "Point", "coordinates": [17.496833, 52.466885]}, "properties": {"bus": 1988, "subst_id": 78, "station": "140 CZE Czer"}}, {"type": "Feature", "geometry": {"type": "Point", "coordinates": [22.558387, 51.216454]}, "properties": {"bus": 2006, "subst_id": 1157, "station": "Lublin-Wrotk"}}, {"type": "Feature", "geometry": {"type": "Point", "coordinates": [22.558387, 51.216454]}, "properties": {"bus": 2007, "subst_id": 1157, "station": "Lublin-Wrotk"}}, {"type": "Feature", "geometry": {"type": "Point", "coordinates": [14.615081, 53.477028]}, "properties": {"bus": 2013, "subst_id": 79, "station": "141 GLN Gol?"}}, {"type": "Feature", "geometry": {"type": "Point", "coordinates": [14.615081, 53.477028]}, "properties": {"bus": 2014, "subst_id": 79, "station": "141 GLN Gol?"}}, {"type": "Feature", "geometry": {"type": "Point", "coordinates": [15.222813, 52.775002]}, "properties": {"bus": 2019, "subst_id": 80, "station": "143 GOR Gorz"}}, {"type": "Feature", "geometry": {"type": "Point", "coordinates": [15.222813, 52.775002]}, "properties": {"bus": 2020, "subst_id": 80, "station": "143 GOR Gorz"}}, {"type": "Feature", "geometry": {"type": "Point", "coordinates": [18.259217, 52.279092]}, "properties": {"bus": 2046, "subst_id": 82, "station": "Konin"}}, {"type": "Feature", "geometry": {"type": "Point", "coordinates": [18.259217, 52.279092]}, "properties": {"bus": 2047, "subst_id": 82, "station": "Konin"}}, {"type": "Feature", "geometry": {"type": "Point", "coordinates": [16.839959, 50.999257]}, "properties": {"bus": 2081, "subst_id": 81, "station": "144 WRC/ KLE"}}, {"type": "Feature", "geometry": {"type": "Point", "coordinates": [16.839959, 50.999257]}, "properties": {"bus": 2082, "subst_id": 81, "station": "144 WRC/ KLE"}}, {"type": "Feature", "geometry": {"type": "Point", "coordinates": [18.259217, 52.279092]}, "properties": {"bus": 2095, "subst_id": 82, "station": "Konin"}}, {"type": "Feature", "geometry": {"type": "Point", "coordinates": [18.259217, 52.279092]}, "properties": {"bus": 2096, "subst_id": 82, "station": "Konin"}}, {"type": "Feature", "geometry": {"type": "Point", "coordinates": [18.259217, 52.279092]}, "properties": {"bus": 2097, "subst_id": 82, "station": "Konin"}}, {"type": "Feature", "geometry": {"type": "Point", "coordinates": [18.259217, 52.279092]}, "properties": {"bus": 2098, "subst_id": 82, "station": "Konin"}}, {"type": "Feature", "geometry": {"type": "Point", "coordinates": [16.070109, 51.524006]}, "properties": {"bus": 2101, "subst_id": 94, "station": "174 POL"}}, {"type": "Feature", "geometry": {"type": "Point", "coordinates": [16.070109, 51.524006]}, "properties": {"bus": 2102, "subst_id": 94, "station": "174 POL"}}, {"type": "Feature", "geometry": {"type": "Point", "coordinates": [16.070109, 51.524006]}, "properties": {"bus": 2103, "subst_id": 94, "station": "174 POL"}}, {"type": "Feature", "geometry": {"type": "Point", "coordinates": [16.070109, 51.524006]}, "properties": {"bus": 2104, "subst_id": 94, "station": "174 POL"}}, {"type": "Feature", "geometry": {"type": "Point", "coordinates": [14.622588, 53.348377]}, "properties": {"bus": 2108, "subst_id": 83, "station": "Dolna Odra"}}, {"type": "Feature", "geometry": {"type": "Point", "coordinates": [16.579464, 51.880647]}, "properties": {"bus": 2150, "subst_id": 84, "station": "152 LES Lesz"}}, {"type": "Feature", "geometry": {"type": "Point", "coordinates": [16.579464, 51.880647]}, "properties": {"bus": 2151, "subst_id": 84, "station": "152 LES Lesz"}}, {"type": "Feature", "geometry": {"type": "Point", "coordinates": [15.279623, 52.063547]}, "properties": {"bus": 2158, "subst_id": 85, "station": "153 LSN Le?n"}}, {"type": "Feature", "geometry": {"type": "Point", "coordinates": [15.279623, 52.063547]}, "properties": {"bus": 2159, "subst_id": 85, "station": "153 LSN Le?n"}}, {"type": "Feature", "geometry": {"type": "Point", "coordinates": [14.91255, 50.94818]}, "properties": {"bus": 2175, "subst_id": 86, "station": "Turow MIK"}}, {"type": "Feature", "geometry": {"type": "Point", "coordinates": [14.91255, 50.94818]}, "properties": {"bus": 2176, "subst_id": 86, "station": "Turow MIK"}}, {"type": "Feature", "geometry": {"type": "Point", "coordinates": [14.907181, 53.368544]}, "properties": {"bus": 2181, "subst_id": 87, "station": "160 MON - Mo"}}, {"type": "Feature", "geometry": {"type": "Point", "coordinates": [14.907181, 53.368544]}, "properties": {"bus": 2182, "subst_id": 87, "station": "160 MON - Mo"}}, {"type": "Feature", "geometry": {"type": "Point", "coordinates": [17.908793, 51.640774]}, "properties": {"bus": 2213, "subst_id": 88, "station": "162 OSR Near"}}, {"type": "Feature", "geometry": {"type": "Point", "coordinates": [17.908793, 51.640774]}, "properties": {"bus": 2214, "subst_id": 88, "station": "162 OSR Near"}}, {"type": "Feature", "geometry": {"type": "Point", "coordinates": [17.02707, 51.12493]}, "properties": {"bus": 2216, "subst_id": 89, "station": "163 PAS Near"}}, {"type": "Feature", "geometry": {"type": "Point", "coordinates": [17.02707, 51.12493]}, "properties": {"bus": 2217, "subst_id": 89, "station": "163 PAS Near"}}, {"type": "Feature", "geometry": {"type": "Point", "coordinates": [18.236469, 52.337501]}, "properties": {"bus": 2218, "subst_id": 90, "station": "Patnow"}}, {"type": "Feature", "geometry": {"type": "Point", "coordinates": [18.236469, 52.337501]}, "properties": {"bus": 2219, "subst_id": 90, "station": "Patnow"}}, {"type": "Feature", "geometry": {"type": "Point", "coordinates": [16.812069, 53.070379]}, "properties": {"bus": 2237, "subst_id": 91, "station": "168 PKW Pila"}}, {"type": "Feature", "geometry": {"type": "Point", "coordinates": [16.812069, 53.070379]}, "properties": {"bus": 2238, "subst_id": 91, "station": "168 PKW Pila"}}, {"type": "Feature", "geometry": {"type": "Point", "coordinates": [14.564555, 53.593514]}, "properties": {"bus": 2239, "subst_id": 92, "station": "169 PLC Poli"}}, {"type": "Feature", "geometry": {"type": "Point", "coordinates": [14.564555, 53.593514]}, "properties": {"bus": 2240, "subst_id": 92, "station": "169 PLC Poli"}}, {"type": "Feature", "geometry": {"type": "Point", "coordinates": [16.869637, 52.418031]}, "properties": {"bus": 2241, "subst_id": 93, "station": "170 PLE"}}, {"type": "Feature", "geometry": {"type": "Point", "coordinates": [16.869637, 52.418031]}, "properties": {"bus": 2242, "subst_id": 93, "station": "170 PLE"}}, {"type": "Feature", "geometry": {"type": "Point", "coordinates": [16.070109, 51.524006]}, "properties": {"bus": 2243, "subst_id": 94, "station": "174 POL"}}, {"type": "Feature", "geometry": {"type": "Point", "coordinates": [16.070109, 51.524006]}, "properties": {"bus": 2244, "subst_id": 94, "station": "174 POL"}}, {"type": "Feature", "geometry": {"type": "Point", "coordinates": [16.070109, 51.524006]}, "properties": {"bus": 2255, "subst_id": 94, "station": "174 POL"}}, {"type": "Feature", "geometry": {"type": "Point", "coordinates": [16.070109, 51.524006]}, "properties": {"bus": 2256, "subst_id": 94, "station": "174 POL"}}, {"type": "Feature", "geometry": {"type": "Point", "coordinates": [17.04874, 52.344681]}, "properties": {"bus": 2261, "subst_id": 95, "station": "176 PPD Swar"}}, {"type": "Feature", "geometry": {"type": "Point", "coordinates": [17.04874, 52.344681]}, "properties": {"bus": 2262, "subst_id": 95, "station": "176 PPD Swar"}}, {"type": "Feature", "geometry": {"type": "Point", "coordinates": [16.3132, 50.8547]}, "properties": {"bus": 2325, "subst_id": 96, "station": "177 SWI Near"}}, {"type": "Feature", "geometry": {"type": "Point", "coordinates": [16.3132, 50.8547]}, "properties": {"bus": 2326, "subst_id": 96, "station": "177 SWI Near"}}, {"type": "Feature", "geometry": {"type": "Point", "coordinates": [19.537778, 51.745278]}, "properties": {"bus": 2360, "subst_id": 1426, "station": "Lodz Power S"}}, {"type": "Feature", "geometry": {"type": "Point", "coordinates": [19.537778, 51.745278]}, "properties": {"bus": 2361, "subst_id": 1426, "station": "Lodz Power S"}}, {"type": "Feature", "geometry": {"type": "Point", "coordinates": [16.070109, 51.524006]}, "properties": {"bus": 2406, "subst_id": 94, "station": "174 POL"}}, {"type": "Feature", "geometry": {"type": "Point", "coordinates": [16.766434, 50.58845]}, "properties": {"bus": 2430, "subst_id": 97, "station": "179 ZBK Near"}}, {"type": "Feature", "geometry": {"type": "Point", "coordinates": [16.766434, 50.58845]}, "properties": {"bus": 2431, "subst_id": 97, "station": "179 ZBK Near"}}, {"type": "Feature", "geometry": {"type": "Point", "coordinates": [18.322717, 52.04871]}, "properties": {"bus": 2442, "subst_id": 74, "station": "Adamow"}}, {"type": "Feature", "geometry": {"type": "Point", "coordinates": [15.98318, 51.674651]}, "properties": {"bus": 2451, "subst_id": 98, "station": "181 ZUK ?uko"}}, {"type": "Feature", "geometry": {"type": "Point", "coordinates": [15.98318, 51.674651]}, "properties": {"bus": 2452, "subst_id": 98, "station": "181 ZUK ?uko"}}, {"type": "Feature", "geometry": {"type": "Point", "coordinates": [17.985602, 53.242478]}, "properties": {"bus": 2473, "subst_id": 99, "station": "182 BYD Bydg"}}, {"type": "Feature", "geometry": {"type": "Point", "coordinates": [17.985602, 53.242478]}, "properties": {"bus": 2474, "subst_id": 99, "station": "182 BYD Bydg"}}, {"type": "Feature", "geometry": {"type": "Point", "coordinates": [16.107485, 54.109624]}, "properties": {"bus": 2497, "subst_id": 100, "station": "183 DUN Duno"}}, {"type": "Feature", "geometry": {"type": "Point", "coordinates": [16.107485, 54.109624]}, "properties": {"bus": 2498, "subst_id": 100, "station": "183 DUN Duno"}}, {"type": "Feature", "geometry": {"type": "Point", "coordinates": [18.627922, 54.404751]}, "properties": {"bus": 2506, "subst_id": 101, "station": "186 GBL Gdan"}}, {"type": "Feature", "geometry": {"type": "Point", "coordinates": [18.627922, 54.404751]}, "properties": {"bus": 2507, "subst_id": 101, "station": "186 GBL Gdan"}}, {"type": "Feature", "geometry": {"type": "Point", "coordinates": [18.641694, 54.378306]}, "properties": {"bus": 2508, "subst_id": 1530, "station": "Gdansk Power"}}, {"type": "Feature", "geometry": {"type": "Point", "coordinates": [18.641694, 54.378306]}, "properties": {"bus": 2509, "subst_id": 1530, "station": "Gdansk Power"}}, {"type": "Feature", "geometry": {"type": "Point", "coordinates": [18.440391, 54.321542]}, "properties": {"bus": 2510, "subst_id": 102, "station": "188 GDA Gdan"}}, {"type": "Feature", "geometry": {"type": "Point", "coordinates": [18.440391, 54.321542]}, "properties": {"bus": 2511, "subst_id": 102, "station": "188 GDA Gdan"}}, {"type": "Feature", "geometry": {"type": "Point", "coordinates": [18.735241, 53.528536]}, "properties": {"bus": 2527, "subst_id": 103, "station": "190 GRU"}}, {"type": "Feature", "geometry": {"type": "Point", "coordinates": [18.735241, 53.528536]}, "properties": {"bus": 2528, "subst_id": 103, "station": "190 GRU"}}, {"type": "Feature", "geometry": {"type": "Point", "coordinates": [18.735241, 53.528536]}, "properties": {"bus": 2529, "subst_id": 103, "station": "190 GRU"}}, {"type": "Feature", "geometry": {"type": "Point", "coordinates": [18.092276, 53.216196]}, "properties": {"bus": 2535, "subst_id": 104, "station": "193 JAS Jast"}}, {"type": "Feature", "geometry": {"type": "Point", "coordinates": [18.092276, 53.216196]}, "properties": {"bus": 2536, "subst_id": 104, "station": "193 JAS Jast"}}, {"type": "Feature", "geometry": {"type": "Point", "coordinates": [18.627922, 54.404751]}, "properties": {"bus": 2574, "subst_id": 101, "station": "186 GBL Gdan"}}, {"type": "Feature", "geometry": {"type": "Point", "coordinates": [20.288529, 53.862963]}, "properties": {"bus": 2600, "subst_id": 105, "station": "195 OLM Lomy"}}, {"type": "Feature", "geometry": {"type": "Point", "coordinates": [20.288529, 53.862963]}, "properties": {"bus": 2601, "subst_id": 105, "station": "195 OLM Lomy"}}, {"type": "Feature", "geometry": {"type": "Point", "coordinates": [18.627922, 54.404751]}, "properties": {"bus": 2602, "subst_id": 101, "station": "186 GBL Gdan"}}, {"type": "Feature", "geometry": {"type": "Point", "coordinates": [20.464877, 53.835961]}, "properties": {"bus": 2603, "subst_id": 106, "station": "197 OLS Olsz"}}, {"type": "Feature", "geometry": {"type": "Point", "coordinates": [20.464877, 53.835961]}, "properties": {"bus": 2604, "subst_id": 106, "station": "197 OLS Olsz"}}, {"type": "Feature", "geometry": {"type": "Point", "coordinates": [18.641694, 54.378306]}, "properties": {"bus": 2606, "subst_id": 1530, "station": "Gdansk Power"}}, {"type": "Feature", "geometry": {"type": "Point", "coordinates": [18.627922, 54.404751]}, "properties": {"bus": 2641, "subst_id": 101, "station": "186 GBL Gdan"}}, {"type": "Feature", "geometry": {"type": "Point", "coordinates": [18.627922, 54.404751]}, "properties": {"bus": 2642, "subst_id": 101, "station": "186 GBL Gdan"}}, {"type": "Feature", "geometry": {"type": "Point", "coordinates": [18.092276, 53.216196]}, "properties": {"bus": 2647, "subst_id": 104, "station": "193 JAS Jast"}}, {"type": "Feature", "geometry": {"type": "Point", "coordinates": [18.440391, 54.321542]}, "properties": {"bus": 2652, "subst_id": 102, "station": "188 GDA Gdan"}}, {"type": "Feature", "geometry": {"type": "Point", "coordinates": [16.983621, 54.470346]}, "properties": {"bus": 2669, "subst_id": 107, "station": "199 Intercon"}}, {"type": "Feature", "geometry": {"type": "Point", "coordinates": [16.983621, 54.470346]}, "properties": {"bus": 2670, "subst_id": 107, "station": "199 Intercon"}}, {"type": "Feature", "geometry": {"type": "Point", "coordinates": [18.671336, 53.027831]}, "properties": {"bus": 2688, "subst_id": 108, "station": "201 TEL Inst"}}, {"type": "Feature", "geometry": {"type": "Point", "coordinates": [18.671336, 53.027831]}, "properties": {"bus": 2689, "subst_id": 108, "station": "201 TEL Inst"}}, {"type": "Feature", "geometry": {"type": "Point", "coordinates": [19.04937, 52.680594]}, "properties": {"bus": 2706, "subst_id": 109, "station": "203 WLA Wloc"}}, {"type": "Feature", "geometry": {"type": "Point", "coordinates": [19.04937, 52.680594]}, "properties": {"bus": 2707, "subst_id": 109, "station": "203 WLA Wloc"}}, {"type": "Feature", "geometry": {"type": "Point", "coordinates": [18.08924, 54.74201]}, "properties": {"bus": 2726, "subst_id": 110, "station": "Zarnowiec"}}, {"type": "Feature", "geometry": {"type": "Point", "coordinates": [18.08924, 54.74201]}, "properties": {"bus": 2727, "subst_id": 110, "station": "Zarnowiec"}}, {"type": "Feature", "geometry": {"type": "Point", "coordinates": [16.716077, 54.057395]}, "properties": {"bus": 2729, "subst_id": 111, "station": "207 ZYD Zydo"}}, {"type": "Feature", "geometry": {"type": "Point", "coordinates": [16.716077, 54.057395]}, "properties": {"bus": 2730, "subst_id": 111, "station": "207 ZYD Zydo"}}, {"type": "Feature", "geometry": {"type": "Point", "coordinates": [18.53478, 49.90072]}, "properties": {"bus": 2732, "subst_id": 1707, "station": "Interconnect"}}, {"type": "Feature", "geometry": {"type": "Point", "coordinates": [18.5401, 49.90452]}, "properties": {"bus": 2733, "subst_id": 1708, "station": "Interconnect"}}, {"type": "Feature", "geometry": {"type": "Point", "coordinates": [18.58736, 49.80207]}, "properties": {"bus": 2734, "subst_id": 1709, "station": "Interconnect"}}, {"type": "Feature", "geometry": {"type": "Point", "coordinates": [23.992406, 50.418035]}, "properties": {"bus": 2736, "subst_id": 1711, "station": "Interconnect"}}, {"type": "Feature", "geometry": {"type": "Point", "coordinates": [14.467222, 53.207778]}, "properties": {"bus": 2737, "subst_id": 1712, "station": "Interconnect"}}, {"type": "Feature", "geometry": {"type": "Point", "coordinates": [21.633383, 49.444257]}, "properties": {"bus": 2738, "subst_id": 1713, "station": "Interconnect"}}, {"type": "Feature", "geometry": {"type": "Point", "coordinates": [16.983621, 54.470346]}, "properties": {"bus": 2739, "subst_id": 107, "station": "199 Intercon"}}]}